{"network":{"links":[{"bandwidth":1000000,"bidirectional":true,"from_interface":"i0","from_router":"Dubbo","latency":556,"to_interface":"i0","to_router":"Moree","weight":10},{"bandwidth":1000000,"bidirectional":true,"from_interface":"i1","from_router":"Dubbo","latency":181,"to_interface":"i0","to_router":"Parkes","weight":10},{"bandwidth":1000000,"bidirectional":true,"from_interface":"i1","from_router":"Moree","latency":641,"to_interface":"i0","to_router":"Brisbane","weight":10},{"bandwidth":1000000,"bidirectional":true,"from_interface":"i0","from_router":"None","latency":817,"to_interface":"i0","to_router":"Shepparton","weight":10},{"bandwidth":1000000,"bidirectional":true,"from_interface":"i1","from_router":"None","latency":817,"to_interface":"i1","to_router":"Parkes","weight":10},{"bandwidth":1000000,"bidirectional":true,"from_interface":"i2","from_router":"None","latency":817,"to_interface":"i0","to_router":"Canberra","weight":10},{"bandwidth":1000000,"bidirectional":true,"from_interface":"i0","from_router":"Albury","latency":436,"to_interface":"i0","to_router":"Melbourne","weight":10},{"bandwidth":1000000,"bidirectional":true,"from_interface":"i1","from_router":"Albury","latency":369,"to_interface":"i1","to_router":"Canberra","weight":10},{"bandwidth":1000000,"bidirectional":true,"from_interface":"i0","from_router":"Newcastle","latency":200,"to_interface":"i0","to_router":"Sydney","weight":10},{"bandwidth":1000000,"bidirectional":true,"from_interface":"i1","from_router":"Newcastle","latency":536,"to_interface":"i0","to_router":"Coff's_Harbour","weight":10},{"bandwidth":1000000,"bidirectional":true,"from_interface":"i1","from_router":"Coff's_Harbour","latency":529,"to_interface":"i1","to_router":"Brisbane","weight":10},{"bandwidth":1000000,"bidirectional":true,"from_interface":"i0","from_router":"Geelong","latency":1048,"to_interface":"i0","to_router":"Adelaide","weight":10},{"bandwidth":1000000,"bidirectional":true,"from_interface":"i1","from_router":"Geelong","latency":1048,"to_interface":"i1","to_router":"Adelaide","weight":10},{"bandwidth":1000000,"bidirectional":true,"from_interface":"i2","from_router":"Geelong","latency":112,"to_interface":"i1","to_router":"Melbourne","weight":10},{"bandwidth":1000000,"bidirectional":true,"from_interface":"i1","from_router":"Shepparton","latency":277,"to_interface":"i2","to_router":"Melbourne","weight":10},{"bandwidth":1000000,"bidirectional":true,"from_interface":"i0","from_router":"Perth","latency":3559,"to_interface":"i2","to_router":"Adelaide","weight":10},{"bandwidth":1000000,"bidirectional":true,"from_interface":"i1","from_router":"Perth","latency":922,"to_interface":"i0","to_router":"Kalgoorlie","weight":10},{"bandwidth":1000000,"bidirectional":true,"from_interface":"i3","from_router":"Adelaide","latency":473,"to_interface":"i0","to_router":"Port_Augusta","weight":10},{"bandwidth":1000000,"bidirectional":true,"from_interface":"i1","from_router":"Sydney","latency":416,"to_interface":"i2","to_router":"Canberra","weight":10},{"bandwidth":1000000,"bidirectional":true,"from_interface":"i1","from_router":"Kalgoorlie","latency":2593,"to_interface":"i1","to_router":"Port_Augusta","weight":10}],"name":"Nextgen","routers":[{"interfaces":[{"names":["i0","i1"],"routing_table":{}}],"location":{"latitude":-32.25,"longitude":148.61667},"name":"Dubbo"},{"interfaces":[{"names":["i0","i1"],"routing_table":{}}],"location":{"latitude":-29.46667,"longitude":149.85},"name":"Moree"},{"interfaces":[{"names":["i0","i1","i2"],"routing_table":{}}],"name":"None"},{"interfaces":[{"names":["i0","i1"],"routing_table":{}}],"location":{"latitude":-33.13333,"longitude":148.18333},"name":"Parkes"},{"interfaces":[{"names":["i0","i1"],"routing_table":{}}],"location":{"latitude":-36.08333,"longitude":146.91667},"name":"Albury"},{"interfaces":[{"names":["i0","i1"],"routing_table":{}}],"location":{"latitude":-32.92715,"longitude":151.77647},"name":"Newcastle"},{"interfaces":[{"names":["i0","i1"],"routing_table":{}}],"location":{"latitude":-30.3,"longitude":153.13333},"name":"Coff's_Harbour"},{"interfaces":[{"names":["i0","i1","i2"],"routing_table":{}}],"location":{"latitude":-38.14711,"longitude":144.36069},"name":"Geelong"},{"interfaces":[{"names":["i0","i1"],"routing_table":{}}],"location":{"latitude":-36.38333,"longitude":145.4},"name":"Shepparton"},{"interfaces":[{"names":["i0","i1"],"routing_table":{}}],"location":{"latitude":-31.93333,"longitude":115.83333},"name":"Perth"},{"interfaces":[{"names":["i0","i1","i2","i3"],"routing_table":{}}],"location":{"latitude":-34.93333,"longitude":138.6},"name":"Adelaide"},{"interfaces":[{"names":["i0","i1","i2"],"routing_table":{}}],"location":{"latitude":-37.814,"longitude":144.96332},"name":"Melbourne"},{"interfaces":[{"names":["i0","i1"],"routing_table":{}}],"location":{"latitude":-33.86785,"longitude":151.20732},"name":"Sydney"},{"interfaces":[{"names":["i0","i1","i2"],"routing_table":{}}],"location":{"latitude":-35.28346,"longitude":149.12807},"name":"Canberra"},{"interfaces":[{"names":["i0","i1"],"routing_table":{}}],"location":{"latitude":-27.46794,"longitude":153.02809},"name":"Brisbane"},{"interfaces":[{"names":["i0","i1"],"routing_table":{}}],"location":{"latitude":-30.75,"longitude":121.46667},"name":"Kalgoorlie"},{"interfaces":[{"names":["i0","i1"],"routing_table":{}}],"location":{"latitude":-32.5,"longitude":137.76667},"name":"Port_Augusta"}]}}
