{"network":{"links":[{"bandwidth":1000000,"bidirectional":true,"from_interface":"i0","from_router":"Glasgow","latency":266,"to_interface":"i0","to_router":"Culbertson","weight":10},{"bandwidth":1000000,"bidirectional":true,"from_interface":"i1","from_router":"Glasgow","latency":385,"to_interface":"i0","to_router":"Havre","weight":10},{"bandwidth":1000000,"bidirectional":true,"from_interface":"i0","from_router":"Bainville","latency":216,"to_interface":"i0","to_router":"DCN_Network","weight":10},{"bandwidth":1000000,"bidirectional":true,"from_interface":"i1","from_router":"Bainville","latency":41,"to_interface":"i1","to_router":"Culbertson","weight":10},{"bandwidth":1000000,"bidirectional":true,"from_interface":"i0","from_router":"Glendive","latency":197,"to_interface":"i0","to_router":"Miles_City","weight":10},{"bandwidth":1000000,"bidirectional":true,"from_interface":"i0","from_router":"Lincoln","latency":155,"to_interface":"i0","to_router":"Fairfield","weight":10},{"bandwidth":1000000,"bidirectional":true,"from_interface":"i1","from_router":"Lincoln","latency":110,"to_interface":"i0","to_router":"Helena","weight":10},{"bandwidth":1000000,"bidirectional":true,"from_interface":"i2","from_router":"Lincoln","latency":171,"to_interface":"i0","to_router":"Missoula","weight":10},{"bandwidth":1000000,"bidirectional":true,"from_interface":"i1","from_router":"Helena","latency":217,"to_interface":"i0","to_router":"Bozeman","weight":10},{"bandwidth":1000000,"bidirectional":true,"from_interface":"i2","from_router":"Helena","latency":271,"to_interface":"i0","to_router":"Dillion","weight":10},{"bandwidth":1000000,"bidirectional":true,"from_interface":"i1","from_router":"Missoula","latency":310,"to_interface":"i0","to_router":"Noxon","weight":10},{"bandwidth":1000000,"bidirectional":true,"from_interface":"i0","from_router":"Sheridan","latency":539,"to_interface":"i0","to_router":"Forsyth","weight":10},{"bandwidth":1000000,"bidirectional":true,"from_interface":"i0","from_router":"Fort_Benton","latency":103,"to_interface":"i0","to_router":"Great_Falls","weight":10},{"bandwidth":1000000,"bidirectional":true,"from_interface":"i1","from_router":"Fort_Benton","latency":186,"to_interface":"i1","to_router":"Havre","weight":10},{"bandwidth":1000000,"bidirectional":true,"from_interface":"i2","from_router":"Fort_Benton","latency":202,"to_interface":"i0","to_router":"Moore","weight":10},{"bandwidth":1000000,"bidirectional":true,"from_interface":"i0","from_router":"Seattle","latency":216,"to_interface":"i1","to_router":"Noxon","weight":10},{"bandwidth":1000000,"bidirectional":true,"from_interface":"i2","from_router":"Havre","latency":328,"to_interface":"i0","to_router":"N_Cutbank","weight":10},{"bandwidth":1000000,"bidirectional":true,"from_interface":"i1","from_router":"Forsyth","latency":255,"to_interface":"i0","to_router":"Billings","weight":10},{"bandwidth":1000000,"bidirectional":true,"from_interface":"i2","from_router":"Forsyth","latency":115,"to_interface":"i1","to_router":"Miles_City","weight":10},{"bandwidth":1000000,"bidirectional":true,"from_interface":"i2","from_router":"Noxon","latency":190,"to_interface":"i0","to_router":"Kalispell","weight":10},{"bandwidth":1000000,"bidirectional":true,"from_interface":"i1","from_router":"Fairfield","latency":92,"to_interface":"i1","to_router":"Great_Falls","weight":10},{"bandwidth":1000000,"bidirectional":true,"from_interface":"i1","from_router":"Moore","latency":218,"to_interface":"i0","to_router":"Big_Timber","weight":10},{"bandwidth":1000000,"bidirectional":true,"from_interface":"i1","from_router":"Big_Timber","latency":193,"to_interface":"i1","to_router":"Billings","weight":10}],"name":"VisionNet","routers":[{"interfaces":[{"names":["i0","i1"],"routing_table":{}}],"location":{"latitude":48.19696,"longitude":-106.63671},"name":"Glasgow"},{"interfaces":[{"names":["i0","i1"],"routing_table":{}}],"location":{"latitude":48.14002,"longitude":-104.22272},"name":"Bainville"},{"interfaces":[{"names":["i0"],"routing_table":{}}],"location":{"latitude":47.10529,"longitude":-104.71246},"name":"Glendive"},{"interfaces":[{"names":["i0","i1"],"routing_table":{}}],"location":{"latitude":48.14446,"longitude":-104.5169},"name":"Culbertson"},{"interfaces":[{"names":["i0","i1","i2"],"routing_table":{}}],"location":{"latitude":46.95494,"longitude":-112.68171},"name":"Lincoln"},{"interfaces":[{"names":["i0","i1","i2"],"routing_table":{}}],"location":{"latitude":46.59271,"longitude":-112.03611},"name":"Helena"},{"interfaces":[{"names":["i0"],"routing_table":{}}],"location":{"latitude":45.21631,"longitude":-112.63752},"name":"Dillion"},{"interfaces":[{"names":["i0","i1"],"routing_table":{}}],"location":{"latitude":46.87215,"longitude":-113.994},"name":"Missoula"},{"interfaces":[{"names":["i0"],"routing_table":{}}],"location":{"latitude":45.67965,"longitude":-111.03856},"name":"Bozeman"},{"interfaces":[{"names":["i0"],"routing_table":{}}],"location":{"latitude":48.77475,"longitude":-104.56246},"name":"Sheridan"},{"interfaces":[{"names":["i0"],"routing_table":{}}],"name":"DCN_Network"},{"interfaces":[{"names":["i0","i1","i2"],"routing_table":{}}],"location":{"latitude":47.8183,"longitude":-110.66744},"name":"Fort_Benton"},{"interfaces":[{"names":["i0"],"routing_table":{}}],"name":"Seattle"},{"interfaces":[{"names":["i0","i1","i2"],"routing_table":{}}],"location":{"latitude":48.55,"longitude":-109.68409},"name":"Havre"},{"interfaces":[{"names":["i0","i1","i2"],"routing_table":{}}],"location":{"latitude":46.26638,"longitude":-106.67781},"name":"Forsyth"},{"interfaces":[{"names":["i0","i1"],"routing_table":{}}],"location":{"latitude":46.40834,"longitude":-105.84056},"name":"Miles_City"},{"interfaces":[{"names":["i0","i1","i2"],"routing_table":{}}],"location":{"latitude":47.99604,"longitude":-115.78156},"name":"Noxon"},{"interfaces":[{"names":["i0"],"routing_table":{}}],"location":{"latitude":48.19579,"longitude":-114.31291},"name":"Kalispell"},{"interfaces":[{"names":["i0"],"routing_table":{}}],"location":{"latitude":48.63304,"longitude":-112.32616},"name":"N_Cutbank"},{"interfaces":[{"names":["i0","i1"],"routing_table":{}}],"location":{"latitude":47.61467,"longitude":-111.98028},"name":"Fairfield"},{"interfaces":[{"names":["i0","i1"],"routing_table":{}}],"location":{"latitude":47.50024,"longitude":-111.30081},"name":"Great_Falls"},{"interfaces":[{"names":["i0","i1"],"routing_table":{}}],"location":{"latitude":46.97552,"longitude":-109.69685},"name":"Moore"},{"interfaces":[{"names":["i0","i1"],"routing_table":{}}],"location":{"latitude":45.83494,"longitude":-109.95546},"name":"Big_Timber"},{"interfaces":[{"names":["i0","i1"],"routing_table":{}}],"location":{"latitude":45.78329,"longitude":-108.50069},"name":"Billings"}]}}
