{"network":{"links":[{"bandwidth":6400,"bidirectional":true,"from_interface":"i0","from_router":"Trondheim","latency":1022,"to_interface":"i0","to_router":"Stockholm","weight":10},{"bandwidth":6400,"bidirectional":true,"from_interface":"i1","from_router":"Stockholm","latency":664,"to_interface":"i0","to_router":"Helsinki","weight":10},{"bandwidth":6400,"bidirectional":true,"from_interface":"i2","from_router":"Stockholm","latency":874,"to_interface":"i0","to_router":"Copenhagen","weight":10},{"bandwidth":6400,"bidirectional":true,"from_interface":"i3","from_router":"Stockholm","latency":1517,"to_interface":"i0","to_router":"EUROPE","weight":10},{"bandwidth":6400,"bidirectional":true,"from_interface":"i4","from_router":"Stockholm","latency":1517,"to_interface":"i0","to_router":"USA","weight":10},{"bandwidth":6400,"bidirectional":true,"from_interface":"i1","from_router":"Copenhagen","latency":3509,"to_interface":"i0","to_router":"Reykjavik","weight":10}],"name":"Nordu1989","routers":[{"interfaces":[{"names":["i0"],"routing_table":{}}],"location":{"latitude":63.43049,"longitude":10.39506},"name":"Trondheim"},{"interfaces":[{"names":["i0","i1","i2","i3","i4"],"routing_table":{}}],"location":{"latitude":59.33258,"longitude":18.0649},"name":"Stockholm"},{"interfaces":[{"names":["i0"],"routing_table":{}}],"location":{"latitude":60.16952,"longitude":24.93545},"name":"Helsinki"},{"interfaces":[{"names":["i0","i1"],"routing_table":{}}],"location":{"latitude":55.67594,"longitude":12.56553},"name":"Copenhagen"},{"interfaces":[{"names":["i0"],"routing_table":{}}],"location":{"latitude":64.13548,"longitude":-21.89541},"name":"Reykjavik"},{"interfaces":[{"names":["i0"],"routing_table":{}}],"name":"EUROPE"},{"interfaces":[{"names":["i0"],"routing_table":{}}],"name":"USA"}]}}
