{"network":{"links":[{"bandwidth":45000,"bidirectional":true,"from_interface":"i0","from_router":"1","latency":1983,"to_interface":"i0","to_router":"Columbus","weight":10},{"bandwidth":45000,"bidirectional":true,"from_interface":"i0","from_router":"12","latency":1983,"to_interface":"i1","to_router":"Columbus","weight":10},{"bandwidth":45000,"bidirectional":true,"from_interface":"i0","from_router":"Washington,_DC","latency":1457,"to_interface":"i0","to_router":"Atlanta","weight":10},{"bandwidth":45000,"bidirectional":true,"from_interface":"i1","from_router":"Washington,_DC","latency":880,"to_interface":"i2","to_router":"Columbus","weight":10},{"bandwidth":45000,"bidirectional":true,"from_interface":"i2","from_router":"Washington,_DC","latency":552,"to_interface":"i0","to_router":"New_York","weight":10},{"bandwidth":45000,"bidirectional":true,"from_interface":"i0","from_router":"13","latency":1983,"to_interface":"i3","to_router":"Columbus","weight":10},{"bandwidth":45000,"bidirectional":true,"from_interface":"i0","from_router":"Boston","latency":514,"to_interface":"i1","to_router":"New_York","weight":10},{"bandwidth":45000,"bidirectional":true,"from_interface":"i1","from_router":"Boston","latency":2282,"to_interface":"i0","to_router":"Chicago","weight":10},{"bandwidth":45000,"bidirectional":true,"from_interface":"i0","from_router":"Seattle","latency":4649,"to_interface":"i1","to_router":"Chicago","weight":10},{"bandwidth":45000,"bidirectional":true,"from_interface":"i1","from_router":"Seattle","latency":1825,"to_interface":"i0","to_router":"San_Francisco","weight":10},{"bandwidth":45000,"bidirectional":true,"from_interface":"i1","from_router":"San_Francisco","latency":936,"to_interface":"i0","to_router":"Los_Angeles","weight":10},{"bandwidth":45000,"bidirectional":true,"from_interface":"i2","from_router":"San_Francisco","latency":5656,"to_interface":"i4","to_router":"Columbus","weight":10},{"bandwidth":45000,"bidirectional":true,"from_interface":"i1","from_router":"Los_Angeles","latency":3320,"to_interface":"i0","to_router":"Dallas","weight":10},{"bandwidth":45000,"bidirectional":true,"from_interface":"i1","from_router":"Dallas","latency":609,"to_interface":"i0","to_router":"Houston","weight":10},{"bandwidth":45000,"bidirectional":true,"from_interface":"i2","from_router":"Dallas","latency":2451,"to_interface":"i5","to_router":"Columbus","weight":10},{"bandwidth":45000,"bidirectional":true,"from_interface":"i1","from_router":"Houston","latency":1882,"to_interface":"i1","to_router":"Atlanta","weight":10},{"bandwidth":45000,"bidirectional":true,"from_interface":"i6","from_router":"Columbus","latency":743,"to_interface":"i2","to_router":"Chicago","weight":10}],"name":"Compuserve","routers":[{"interfaces":[{"names":["i0"],"routing_table":{}}],"name":"1"},{"interfaces":[{"names":["i0"],"routing_table":{}}],"name":"12"},{"interfaces":[{"names":["i0","i1","i2"],"routing_table":{}}],"location":{"latitude":38.89511,"longitude":-77.03637},"name":"Washington,_DC"},{"interfaces":[{"names":["i0"],"routing_table":{}}],"name":"13"},{"interfaces":[{"names":["i0","i1"],"routing_table":{}}],"location":{"latitude":42.35843,"longitude":-71.05977},"name":"Boston"},{"interfaces":[{"names":["i0","i1"],"routing_table":{}}],"location":{"latitude":40.71427,"longitude":-74.00597},"name":"New_York"},{"interfaces":[{"names":["i0","i1"],"routing_table":{}}],"location":{"latitude":47.60621,"longitude":-122.33207},"name":"Seattle"},{"interfaces":[{"names":["i0","i1","i2"],"routing_table":{}}],"location":{"latitude":37.77493,"longitude":-122.41942},"name":"San_Francisco"},{"interfaces":[{"names":["i0","i1"],"routing_table":{}}],"location":{"latitude":34.05223,"longitude":-118.24368},"name":"Los_Angeles"},{"interfaces":[{"names":["i0","i1","i2"],"routing_table":{}}],"location":{"latitude":32.78306,"longitude":-96.80667},"name":"Dallas"},{"interfaces":[{"names":["i0","i1"],"routing_table":{}}],"location":{"latitude":29.76328,"longitude":-95.36327},"name":"Houston"},{"interfaces":[{"names":["i0","i1"],"routing_table":{}}],"location":{"latitude":33.749,"longitude":-84.38798},"name":"Atlanta"},{"interfaces":[{"names":["i0","i1","i2","i3","i4","i5","i6"],"routing_table":{}}],"location":{"latitude":39.96118,"longitude":-82.99879},"name":"Columbus"},{"interfaces":[{"names":["i0","i1","i2"],"routing_table":{}}],"location":{"latitude":41.85003,"longitude":-87.65005},"name":"Chicago"}]}}
