{"network":{"links":[{"bandwidth":2500000,"bidirectional":true,"from_interface":"i0","from_router":"None","latency":31,"to_interface":"i0","to_router":"IWB","weight":10},{"bandwidth":2500000,"bidirectional":true,"from_interface":"i1","from_router":"None","latency":31,"to_interface":"i0","to_router":"ENSI","weight":10},{"bandwidth":2500000,"bidirectional":true,"from_interface":"i2","from_router":"None","latency":31,"to_interface":"i0","to_router":"BSSE","weight":10},{"bandwidth":2500000,"bidirectional":true,"from_interface":"i0","from_router":"None2","latency":31,"to_interface":"i0","to_router":"None11","weight":10},{"bandwidth":2500000,"bidirectional":true,"from_interface":"i1","from_router":"None2","latency":31,"to_interface":"i0","to_router":"RERO","weight":10},{"bandwidth":2500000,"bidirectional":true,"from_interface":"i2","from_router":"None2","latency":31,"to_interface":"i0","to_router":"VSNet","weight":10},{"bandwidth":2500000,"bidirectional":true,"from_interface":"i0","from_router":"None3","latency":31,"to_interface":"i0","to_router":"CERN","weight":10},{"bandwidth":2500000,"bidirectional":true,"from_interface":"i1","from_router":"None3","latency":31,"to_interface":"i0","to_router":"EPFL","weight":10},{"bandwidth":2500000,"bidirectional":true,"from_interface":"i2","from_router":"None3","latency":31,"to_interface":"i1","to_router":"RERO","weight":10},{"bandwidth":2500000,"bidirectional":true,"from_interface":"i0","from_router":"None4","latency":31,"to_interface":"i1","to_router":"ENSI","weight":10},{"bandwidth":2500000,"bidirectional":true,"from_interface":"i1","from_router":"None4","latency":31,"to_interface":"i0","to_router":"PSI","weight":10},{"bandwidth":2500000,"bidirectional":true,"from_interface":"i2","from_router":"None4","latency":31,"to_interface":"i0","to_router":"UZH","weight":10},{"bandwidth":2500000,"bidirectional":true,"from_interface":"i0","from_router":"GLBX","latency":31,"to_interface":"i1","to_router":"CERN","weight":10},{"bandwidth":2500000,"bidirectional":true,"from_interface":"i0","from_router":"CIXP","latency":31,"to_interface":"i2","to_router":"CERN","weight":10},{"bandwidth":2500000,"bidirectional":true,"from_interface":"i0","from_router":"CBF_Link_GARR_Lightpath","latency":31,"to_interface":"i0","to_router":"CSCS_TI-EDU","weight":10},{"bandwidth":2500000,"bidirectional":true,"from_interface":"i0","from_router":"Swisscom","latency":31,"to_interface":"i3","to_router":"CERN","weight":10},{"bandwidth":2500000,"bidirectional":true,"from_interface":"i0","from_router":"UniNE","latency":74,"to_interface":"i0","to_router":"HFT-SO","weight":10},{"bandwidth":2500000,"bidirectional":true,"from_interface":"i1","from_router":"UniNE","latency":58,"to_interface":"i0","to_router":"HEIG-VD","weight":10},{"bandwidth":2500000,"bidirectional":true,"from_interface":"i2","from_router":"UniNE","latency":91,"to_interface":"i0","to_router":"HES-SO","weight":10},{"bandwidth":2500000,"bidirectional":true,"from_interface":"i0","from_router":"SNF","latency":5,"to_interface":"i0","to_router":"UniBE","weight":10},{"bandwidth":2500000,"bidirectional":true,"from_interface":"i0","from_router":"AMS-IX","latency":31,"to_interface":"i4","to_router":"CERN","weight":10},{"bandwidth":2500000,"bidirectional":true,"from_interface":"i0","from_router":"GEANT2","latency":31,"to_interface":"i5","to_router":"CERN","weight":10},{"bandwidth":2500000,"bidirectional":true,"from_interface":"i1","from_router":"CSCS_TI-EDU","latency":31,"to_interface":"i0","to_router":"None9","weight":10},{"bandwidth":2500000,"bidirectional":true,"from_interface":"i2","from_router":"CSCS_TI-EDU","latency":135,"to_interface":"i1","to_router":"VSNet","weight":10},{"bandwidth":2500000,"bidirectional":true,"from_interface":"i0","from_router":"Jungfraujoch","latency":31,"to_interface":"i1","to_router":"None11","weight":10},{"bandwidth":2500000,"bidirectional":true,"from_interface":"i1","from_router":"HEIG-VD","latency":53,"to_interface":"i1","to_router":"EPFL","weight":10},{"bandwidth":2500000,"bidirectional":true,"from_interface":"i0","from_router":"IBM","latency":5,"to_interface":"i0","to_router":"UniGE","weight":10},{"bandwidth":2500000,"bidirectional":true,"from_interface":"i1","from_router":"UniGE","latency":5,"to_interface":"i6","to_router":"CERN","weight":10},{"bandwidth":2500000,"bidirectional":true,"from_interface":"i2","from_router":"UniGE","latency":90,"to_interface":"i2","to_router":"EPFL","weight":10},{"bandwidth":2500000,"bidirectional":true,"from_interface":"i3","from_router":"UniGE","latency":5,"to_interface":"i0","to_router":"Skyguide","weight":10},{"bandwidth":2500000,"bidirectional":true,"from_interface":"i0","from_router":"None5","latency":31,"to_interface":"i0","to_router":"None12","weight":10},{"bandwidth":2500000,"bidirectional":true,"from_interface":"i1","from_router":"None5","latency":31,"to_interface":"i0","to_router":"PHTG","weight":10},{"bandwidth":2500000,"bidirectional":true,"from_interface":"i2","from_router":"None5","latency":31,"to_interface":"i0","to_router":"FHSG","weight":10},{"bandwidth":2500000,"bidirectional":true,"from_interface":"i0","from_router":"None6","latency":31,"to_interface":"i0","to_router":"HTW","weight":10},{"bandwidth":2500000,"bidirectional":true,"from_interface":"i1","from_router":"None6","latency":31,"to_interface":"i0","to_router":"None7","weight":10},{"bandwidth":2500000,"bidirectional":true,"from_interface":"i2","from_router":"None6","latency":31,"to_interface":"i0","to_router":"SLF","weight":10},{"bandwidth":2500000,"bidirectional":true,"from_interface":"i1","from_router":"None7","latency":31,"to_interface":"i0","to_router":"HLI","weight":10},{"bandwidth":2500000,"bidirectional":true,"from_interface":"i2","from_router":"None7","latency":31,"to_interface":"i0","to_router":"HSR","weight":10},{"bandwidth":2500000,"bidirectional":true,"from_interface":"i0","from_router":"None8","latency":31,"to_interface":"i0","to_router":"HSLU","weight":10},{"bandwidth":2500000,"bidirectional":true,"from_interface":"i1","from_router":"None8","latency":31,"to_interface":"i0","to_router":"ETH","weight":10},{"bandwidth":2500000,"bidirectional":true,"from_interface":"i2","from_router":"None8","latency":31,"to_interface":"i1","to_router":"None9","weight":10},{"bandwidth":2500000,"bidirectional":true,"from_interface":"i2","from_router":"None9","latency":31,"to_interface":"i1","to_router":"HSLU","weight":10},{"bandwidth":2500000,"bidirectional":true,"from_interface":"i3","from_router":"None9","latency":31,"to_interface":"i1","to_router":"HSR","weight":10},{"bandwidth":2500000,"bidirectional":true,"from_interface":"i0","from_router":"None10","latency":31,"to_interface":"i0","to_router":"UniFR","weight":10},{"bandwidth":2500000,"bidirectional":true,"from_interface":"i1","from_router":"None10","latency":31,"to_interface":"i0","to_router":"UniL","weight":10},{"bandwidth":2500000,"bidirectional":true,"from_interface":"i2","from_router":"None10","latency":31,"to_interface":"i1","to_router":"UniBE","weight":10},{"bandwidth":2500000,"bidirectional":true,"from_interface":"i2","from_router":"None11","latency":31,"to_interface":"i2","to_router":"UniBE","weight":10},{"bandwidth":2500000,"bidirectional":true,"from_interface":"i1","from_router":"UniFR","latency":51,"to_interface":"i3","to_router":"UniBE","weight":10},{"bandwidth":2500000,"bidirectional":true,"from_interface":"i0","from_router":"GEANT2_Lightpaths","latency":31,"to_interface":"i7","to_router":"CERN","weight":10},{"bandwidth":2500000,"bidirectional":true,"from_interface":"i0","from_router":"UniSG","latency":5,"to_interface":"i1","to_router":"FHSG","weight":10},{"bandwidth":2500000,"bidirectional":true,"from_interface":"i1","from_router":"UniSG","latency":54,"to_interface":"i0","to_router":"NTB","weight":10},{"bandwidth":2500000,"bidirectional":true,"from_interface":"i4","from_router":"UniBE","latency":5,"to_interface":"i0","to_router":"EUResearch","weight":10},{"bandwidth":2500000,"bidirectional":true,"from_interface":"i5","from_router":"UniBE","latency":119,"to_interface":"i1","to_router":"IWB","weight":10},{"bandwidth":2500000,"bidirectional":true,"from_interface":"i6","from_router":"UniBE","latency":5,"to_interface":"i0","to_router":"ETH-Rat","weight":10},{"bandwidth":2500000,"bidirectional":true,"from_interface":"i1","from_router":"HFT-SO","latency":24,"to_interface":"i2","to_router":"ENSI","weight":10},{"bandwidth":2500000,"bidirectional":true,"from_interface":"i1","from_router":"ETH-Rat","latency":5,"to_interface":"i1","to_router":"EUResearch","weight":10},{"bandwidth":2500000,"bidirectional":true,"from_interface":"i0","from_router":"PMOD","latency":5,"to_interface":"i1","to_router":"SLF","weight":10},{"bandwidth":2500000,"bidirectional":true,"from_interface":"i0","from_router":"EHL","latency":5,"to_interface":"i3","to_router":"EPFL","weight":10},{"bandwidth":2500000,"bidirectional":true,"from_interface":"i1","from_router":"EHL","latency":5,"to_interface":"i0","to_router":"EESP","weight":10},{"bandwidth":2500000,"bidirectional":true,"from_interface":"i3","from_router":"ENSI","latency":171,"to_interface":"i1","to_router":"ETH","weight":10},{"bandwidth":2500000,"bidirectional":true,"from_interface":"i1","from_router":"PSI","latency":53,"to_interface":"i2","to_router":"ETH","weight":10},{"bandwidth":2500000,"bidirectional":true,"from_interface":"i0","from_router":"UniBAS","latency":5,"to_interface":"i2","to_router":"IWB","weight":10},{"bandwidth":2500000,"bidirectional":true,"from_interface":"i1","from_router":"UniBAS","latency":5,"to_interface":"i1","to_router":"BSSE","weight":10},{"bandwidth":2500000,"bidirectional":true,"from_interface":"i1","from_router":"HES-SO","latency":50,"to_interface":"i3","to_router":"IWB","weight":10},{"bandwidth":2500000,"bidirectional":true,"from_interface":"i8","from_router":"CERN","latency":5,"to_interface":"i1","to_router":"Skyguide","weight":10},{"bandwidth":2500000,"bidirectional":true,"from_interface":"i4","from_router":"EPFL","latency":5,"to_interface":"i0","to_router":"IMD","weight":10},{"bandwidth":2500000,"bidirectional":true,"from_interface":"i1","from_router":"UniL","latency":5,"to_interface":"i0","to_router":"HES-SO_AvdP","weight":10},{"bandwidth":2500000,"bidirectional":true,"from_interface":"i2","from_router":"UniL","latency":5,"to_interface":"i1","to_router":"IMD","weight":10},{"bandwidth":2500000,"bidirectional":true,"from_interface":"i1","from_router":"HES-SO_AvdP","latency":5,"to_interface":"i1","to_router":"EESP","weight":10},{"bandwidth":2500000,"bidirectional":true,"from_interface":"i1","from_router":"HTW","latency":44,"to_interface":"i2","to_router":"SLF","weight":10},{"bandwidth":2500000,"bidirectional":true,"from_interface":"i2","from_router":"HTW","latency":64,"to_interface":"i1","to_router":"NTB","weight":10},{"bandwidth":2500000,"bidirectional":true,"from_interface":"i1","from_router":"None12","latency":31,"to_interface":"i1","to_router":"PHTG","weight":10},{"bandwidth":2500000,"bidirectional":true,"from_interface":"i2","from_router":"None12","latency":31,"to_interface":"i0","to_router":"ZHAW","weight":10},{"bandwidth":2500000,"bidirectional":true,"from_interface":"i4","from_router":"IWB","latency":31,"to_interface":"i0","to_router":"None13","weight":10},{"bandwidth":2500000,"bidirectional":true,"from_interface":"i5","from_router":"IWB","latency":31,"to_interface":"i0","to_router":"CBF_Link_DFN_Lightpath","weight":10},{"bandwidth":2500000,"bidirectional":true,"from_interface":"i6","from_router":"IWB","latency":31,"to_interface":"i0","to_router":"Swissix","weight":10},{"bandwidth":2500000,"bidirectional":true,"from_interface":"i1","from_router":"HLI","latency":11,"to_interface":"i2","to_router":"NTB","weight":10},{"bandwidth":2500000,"bidirectional":true,"from_interface":"i0","from_router":"Swisscom2","latency":31,"to_interface":"i0","to_router":"Equinix2","weight":10},{"bandwidth":2500000,"bidirectional":true,"from_interface":"i0","from_router":"BelWu","latency":31,"to_interface":"i2","to_router":"PHTG","weight":10},{"bandwidth":2500000,"bidirectional":true,"from_interface":"i0","from_router":"Swissix2","latency":31,"to_interface":"i1","to_router":"Equinix2","weight":10},{"bandwidth":2500000,"bidirectional":true,"from_interface":"i0","from_router":"Equinix","latency":31,"to_interface":"i2","to_router":"Equinix2","weight":10},{"bandwidth":2500000,"bidirectional":true,"from_interface":"i0","from_router":"Telia","latency":31,"to_interface":"i3","to_router":"Equinix2","weight":10},{"bandwidth":2500000,"bidirectional":true,"from_interface":"i4","from_router":"Equinix2","latency":5,"to_interface":"i0","to_router":"IBM2","weight":10},{"bandwidth":2500000,"bidirectional":true,"from_interface":"i1","from_router":"None13","latency":31,"to_interface":"i0","to_router":"WSL","weight":10},{"bandwidth":2500000,"bidirectional":true,"from_interface":"i2","from_router":"None13","latency":31,"to_interface":"i3","to_router":"ETH","weight":10},{"bandwidth":2500000,"bidirectional":true,"from_interface":"i1","from_router":"ZHAW","latency":40,"to_interface":"i1","to_router":"UZH","weight":10},{"bandwidth":2500000,"bidirectional":true,"from_interface":"i0","from_router":"meteoGH","latency":5,"to_interface":"i0","to_router":"NAZ","weight":10},{"bandwidth":2500000,"bidirectional":true,"from_interface":"i1","from_router":"meteoGH","latency":5,"to_interface":"i2","to_router":"UZH","weight":10},{"bandwidth":2500000,"bidirectional":true,"from_interface":"i1","from_router":"NAZ","latency":5,"to_interface":"i4","to_router":"ETH","weight":10},{"bandwidth":2500000,"bidirectional":true,"from_interface":"i3","from_router":"UZH","latency":5,"to_interface":"i5","to_router":"ETH","weight":10},{"bandwidth":2500000,"bidirectional":true,"from_interface":"i6","from_router":"ETH","latency":5,"to_interface":"i0","to_router":"ITIS","weight":10},{"bandwidth":2500000,"bidirectional":true,"from_interface":"i1","from_router":"IBM2","latency":18,"to_interface":"i1","to_router":"WSL","weight":10}],"name":"Switch","routers":[{"interfaces":[{"names":["i0","i1","i2"],"routing_table":{}}],"name":"None"},{"interfaces":[{"names":["i0","i1","i2"],"routing_table":{}}],"name":"None2"},{"interfaces":[{"names":["i0","i1","i2"],"routing_table":{}}],"name":"None3"},{"interfaces":[{"names":["i0","i1","i2"],"routing_table":{}}],"name":"None4"},{"interfaces":[{"names":["i0"],"routing_table":{}}],"name":"GLBX"},{"interfaces":[{"names":["i0"],"routing_table":{}}],"name":"CIXP"},{"interfaces":[{"names":["i0"],"routing_table":{}}],"name":"CBF_Link_GARR_Lightpath"},{"interfaces":[{"names":["i0"],"routing_table":{}}],"name":"Swisscom"},{"interfaces":[{"names":["i0","i1","i2"],"routing_table":{}}],"location":{"latitude":46.99179,"longitude":6.931},"name":"UniNE"},{"interfaces":[{"names":["i0"],"routing_table":{}}],"location":{"latitude":46.94809,"longitude":7.44744},"name":"SNF"},{"interfaces":[{"names":["i0"],"routing_table":{}}],"name":"AMS-IX"},{"interfaces":[{"names":["i0"],"routing_table":{}}],"name":"GEANT2"},{"interfaces":[{"names":["i0","i1","i2"],"routing_table":{}}],"location":{"latitude":46.03475,"longitude":8.91892},"name":"CSCS_TI-EDU"},{"interfaces":[{"names":["i0"],"routing_table":{}}],"location":{"latitude":46.54936,"longitude":7.98831},"name":"Jungfraujoch"},{"interfaces":[{"names":["i0","i1"],"routing_table":{}}],"location":{"latitude":46.77852,"longitude":6.64115},"name":"HEIG-VD"},{"interfaces":[{"names":["i0","i1"],"routing_table":{}}],"location":{"latitude":46.31667,"longitude":7.98333},"name":"VSNet"},{"interfaces":[{"names":["i0"],"routing_table":{}}],"location":{"latitude":46.20222,"longitude":6.14569},"name":"IBM"},{"interfaces":[{"names":["i0","i1","i2","i3"],"routing_table":{}}],"location":{"latitude":46.20222,"longitude":6.14569},"name":"UniGE"},{"interfaces":[{"names":["i0","i1","i2"],"routing_table":{}}],"name":"None5"},{"interfaces":[{"names":["i0","i1","i2"],"routing_table":{}}],"name":"None6"},{"interfaces":[{"names":["i0","i1","i2"],"routing_table":{}}],"name":"None7"},{"interfaces":[{"names":["i0","i1","i2"],"routing_table":{}}],"name":"None8"},{"interfaces":[{"names":["i0","i1","i2","i3"],"routing_table":{}}],"name":"None9"},{"interfaces":[{"names":["i0","i1","i2"],"routing_table":{}}],"name":"None10"},{"interfaces":[{"names":["i0","i1","i2"],"routing_table":{}}],"name":"None11"},{"interfaces":[{"names":["i0","i1"],"routing_table":{}}],"location":{"latitude":47.05048,"longitude":8.30635},"name":"HSLU"},{"interfaces":[{"names":["i0","i1"],"routing_table":{}}],"location":{"latitude":46.80237,"longitude":7.15128},"name":"UniFR"},{"interfaces":[{"names":["i0"],"routing_table":{}}],"name":"GEANT2_Lightpaths"},{"interfaces":[{"names":["i0","i1"],"routing_table":{}}],"location":{"latitude":47.42391,"longitude":9.37477},"name":"UniSG"},{"interfaces":[{"names":["i0","i1","i2","i3","i4","i5","i6"],"routing_table":{}}],"location":{"latitude":46.94809,"longitude":7.44744},"name":"UniBE"},{"interfaces":[{"names":["i0","i1"],"routing_table":{}}],"location":{"latitude":47.1921,"longitude":7.39586},"name":"HFT-SO"},{"interfaces":[{"names":["i0","i1"],"routing_table":{}}],"location":{"latitude":46.94809,"longitude":7.44744},"name":"ETH-Rat"},{"interfaces":[{"names":["i0"],"routing_table":{}}],"location":{"latitude":46.80429,"longitude":9.83723},"name":"PMOD"},{"interfaces":[{"names":["i0","i1"],"routing_table":{}}],"location":{"latitude":46.516,"longitude":6.63282},"name":"EHL"},{"interfaces":[{"names":["i0","i1"],"routing_table":{}}],"location":{"latitude":47.22557,"longitude":8.82228},"name":"HSR"},{"interfaces":[{"names":["i0","i1","i2","i3"],"routing_table":{}}],"location":{"latitude":47.1237,"longitude":7.27887},"name":"ENSI"},{"interfaces":[{"names":["i0","i1"],"routing_table":{}}],"location":{"latitude":47.53356,"longitude":8.25666},"name":"PSI"},{"interfaces":[{"names":["i0","i1"],"routing_table":{}}],"location":{"latitude":47.5584,"longitude":7.57327},"name":"UniBAS"},{"interfaces":[{"names":["i0","i1"],"routing_table":{}}],"location":{"latitude":47.5584,"longitude":7.57327},"name":"BSSE"},{"interfaces":[{"names":["i0","i1"],"routing_table":{}}],"location":{"latitude":47.36493,"longitude":7.34453},"name":"HES-SO"},{"interfaces":[{"names":["i0","i1","i2","i3","i4","i5","i6","i7","i8"],"routing_table":{}}],"location":{"latitude":46.20222,"longitude":6.14569},"name":"CERN"},{"interfaces":[{"names":["i0","i1"],"routing_table":{}}],"location":{"latitude":46.20222,"longitude":6.14569},"name":"Skyguide"},{"interfaces":[{"names":["i0","i1","i2","i3","i4"],"routing_table":{}}],"location":{"latitude":46.516,"longitude":6.63282},"name":"EPFL"},{"interfaces":[{"names":["i0","i1","i2"],"routing_table":{}}],"location":{"latitude":46.516,"longitude":6.63282},"name":"UniL"},{"interfaces":[{"names":["i0","i1"],"routing_table":{}}],"location":{"latitude":46.516,"longitude":6.63282},"name":"HES-SO_AvdP"},{"interfaces":[{"names":["i0","i1"],"routing_table":{}}],"location":{"latitude":46.516,"longitude":6.63282},"name":"IMD"},{"interfaces":[{"names":["i0","i1"],"routing_table":{}}],"location":{"latitude":46.516,"longitude":6.63282},"name":"EESP"},{"interfaces":[{"names":["i0","i1","i2"],"routing_table":{}}],"location":{"latitude":46.84986,"longitude":9.53287},"name":"HTW"},{"interfaces":[{"names":["i0","i1"],"routing_table":{}}],"location":{"latitude":46.94809,"longitude":7.44744},"name":"EUResearch"},{"interfaces":[{"names":["i0","i1","i2"],"routing_table":{}}],"name":"None12"},{"interfaces":[{"names":["i0","i1","i2","i3","i4","i5","i6"],"routing_table":{}}],"location":{"latitude":47.5584,"longitude":7.57327},"name":"IWB"},{"interfaces":[{"names":["i0","i1"],"routing_table":{}}],"location":{"latitude":47.16667,"longitude":9.53333},"name":"HLI"},{"interfaces":[{"names":["i0"],"routing_table":{}}],"name":"Swisscom2"},{"interfaces":[{"names":["i0"],"routing_table":{}}],"name":"BelWu"},{"interfaces":[{"names":["i0"],"routing_table":{}}],"name":"CBF_Link_DFN_Lightpath"},{"interfaces":[{"names":["i0","i1","i2"],"routing_table":{}}],"location":{"latitude":47.16743,"longitude":9.47794},"name":"NTB"},{"interfaces":[{"names":["i0"],"routing_table":{}}],"name":"Swissix"},{"interfaces":[{"names":["i0"],"routing_table":{}}],"name":"Swissix2"},{"interfaces":[{"names":["i0"],"routing_table":{}}],"name":"Equinix"},{"interfaces":[{"names":["i0"],"routing_table":{}}],"name":"Telia"},{"interfaces":[{"names":["i0","i1","i2"],"routing_table":{}}],"location":{"latitude":47.55816,"longitude":8.89854},"name":"PHTG"},{"interfaces":[{"names":["i0","i1"],"routing_table":{}}],"location":{"latitude":46.10276,"longitude":7.07245},"name":"RERO"},{"interfaces":[{"names":["i0","i1"],"routing_table":{}}],"location":{"latitude":47.42391,"longitude":9.37477},"name":"FHSG"},{"interfaces":[{"names":["i0","i1","i2"],"routing_table":{}}],"location":{"latitude":46.80429,"longitude":9.83723},"name":"SLF"},{"interfaces":[{"names":["i0","i1","i2","i3","i4"],"routing_table":{}}],"location":{"latitude":47.36667,"longitude":8.55},"name":"Equinix2"},{"interfaces":[{"names":["i0","i1","i2"],"routing_table":{}}],"name":"None13"},{"interfaces":[{"names":["i0","i1"],"routing_table":{}}],"location":{"latitude":47.5,"longitude":8.75},"name":"ZHAW"},{"interfaces":[{"names":["i0","i1"],"routing_table":{}}],"location":{"latitude":47.36667,"longitude":8.55},"name":"meteoGH"},{"interfaces":[{"names":["i0","i1"],"routing_table":{}}],"location":{"latitude":47.36667,"longitude":8.55},"name":"NAZ"},{"interfaces":[{"names":["i0","i1","i2","i3"],"routing_table":{}}],"location":{"latitude":47.36667,"longitude":8.55},"name":"UZH"},{"interfaces":[{"names":["i0","i1","i2","i3","i4","i5","i6"],"routing_table":{}}],"location":{"latitude":47.36667,"longitude":8.55},"name":"ETH"},{"interfaces":[{"names":["i0"],"routing_table":{}}],"location":{"latitude":47.36667,"longitude":8.55},"name":"ITIS"},{"interfaces":[{"names":["i0","i1"],"routing_table":{}}],"location":{"latitude":47.36667,"longitude":8.55},"name":"IBM2"},{"interfaces":[{"names":["i0","i1"],"routing_table":{}}],"location":{"latitude":47.35515,"longitude":8.44256},"name":"WSL"}]}}
