{"network":{"links":[{"bandwidth":45000,"bidirectional":true,"from_interface":"i0","from_router":"Philadelphia","latency":694,"to_interface":"i0","to_router":"Pittsburgh","weight":10},{"bandwidth":45000,"bidirectional":true,"from_interface":"i1","from_router":"Philadelphia","latency":245,"to_interface":"i0","to_router":"Baltimore","weight":10},{"bandwidth":45000,"bidirectional":true,"from_interface":"i1","from_router":"Pittsburgh","latency":848,"to_interface":"i0","to_router":"New_York","weight":10},{"bandwidth":45000,"bidirectional":true,"from_interface":"i0","from_router":"Richmond","latency":349,"to_interface":"i1","to_router":"Baltimore","weight":10},{"bandwidth":45000,"bidirectional":true,"from_interface":"i1","from_router":"Richmond","latency":378,"to_interface":"i0","to_router":"Raleigh","weight":10},{"bandwidth":45000,"bidirectional":true,"from_interface":"i2","from_router":"Baltimore","latency":1550,"to_interface":"i0","to_router":"Atlanta","weight":10},{"bandwidth":45000,"bidirectional":true,"from_interface":"i3","from_router":"Baltimore","latency":1119,"to_interface":"i0","to_router":"Hong_Kong","weight":10},{"bandwidth":45000,"bidirectional":true,"from_interface":"i4","from_router":"Baltimore","latency":1119,"to_interface":"i0","to_router":"Barbados","weight":10},{"bandwidth":45000,"bidirectional":true,"from_interface":"i5","from_router":"Baltimore","latency":1119,"to_interface":"i0","to_router":"Vienna","weight":10},{"bandwidth":45000,"bidirectional":true,"from_interface":"i6","from_router":"Baltimore","latency":1119,"to_interface":"i0","to_router":"London","weight":10},{"bandwidth":45000,"bidirectional":true,"from_interface":"i7","from_router":"Baltimore","latency":1119,"to_interface":"i0","to_router":"Sydney","weight":10},{"bandwidth":45000,"bidirectional":true,"from_interface":"i8","from_router":"Baltimore","latency":1119,"to_interface":"i0","to_router":"Paris","weight":10},{"bandwidth":45000,"bidirectional":true,"from_interface":"i9","from_router":"Baltimore","latency":530,"to_interface":"i0","to_router":"Pittsburgh2","weight":10},{"bandwidth":45000,"bidirectional":true,"from_interface":"i0","from_router":"Boston","latency":514,"to_interface":"i1","to_router":"New_York","weight":10},{"bandwidth":45000,"bidirectional":true,"from_interface":"i1","from_router":"Boston","latency":254,"to_interface":"i0","to_router":"Hartford","weight":10},{"bandwidth":45000,"bidirectional":true,"from_interface":"i0","from_router":"Dallas","latency":609,"to_interface":"i0","to_router":"Houston","weight":10},{"bandwidth":45000,"bidirectional":true,"from_interface":"i1","from_router":"Dallas","latency":1935,"to_interface":"i1","to_router":"Atlanta","weight":10},{"bandwidth":45000,"bidirectional":true,"from_interface":"i2","from_router":"Dallas","latency":3320,"to_interface":"i0","to_router":"Los_Angeles","weight":10},{"bandwidth":45000,"bidirectional":true,"from_interface":"i3","from_router":"Dallas","latency":1221,"to_interface":"i0","to_router":"Kansas_City","weight":10},{"bandwidth":45000,"bidirectional":true,"from_interface":"i2","from_router":"New_York","latency":1913,"to_interface":"i0","to_router":"Chicago","weight":10},{"bandwidth":45000,"bidirectional":true,"from_interface":"i3","from_router":"New_York","latency":272,"to_interface":"i1","to_router":"Hartford","weight":10},{"bandwidth":45000,"bidirectional":true,"from_interface":"i4","from_router":"New_York","latency":1119,"to_interface":"i0","to_router":"London2","weight":10},{"bandwidth":45000,"bidirectional":true,"from_interface":"i5","from_router":"New_York","latency":1119,"to_interface":"i0","to_router":"Bahrain","weight":10},{"bandwidth":45000,"bidirectional":true,"from_interface":"i6","from_router":"New_York","latency":1119,"to_interface":"i0","to_router":"Barbados2","weight":10},{"bandwidth":45000,"bidirectional":true,"from_interface":"i7","from_router":"New_York","latency":1119,"to_interface":"i0","to_router":"Frankfurt","weight":10},{"bandwidth":45000,"bidirectional":true,"from_interface":"i8","from_router":"New_York","latency":6881,"to_interface":"i0","to_router":"San_Francisco","weight":10},{"bandwidth":45000,"bidirectional":true,"from_interface":"i2","from_router":"Atlanta","latency":1122,"to_interface":"i0","to_router":"Tampa","weight":10},{"bandwidth":45000,"bidirectional":true,"from_interface":"i0","from_router":"Fort_Lauderdale","latency":514,"to_interface":"i1","to_router":"Tampa","weight":10},{"bandwidth":45000,"bidirectional":true,"from_interface":"i1","from_router":"Fort_Lauderdale","latency":69,"to_interface":"i0","to_router":"Miami","weight":10},{"bandwidth":45000,"bidirectional":true,"from_interface":"i2","from_router":"Fort_Lauderdale","latency":496,"to_interface":"i0","to_router":"Orlando","weight":10},{"bandwidth":45000,"bidirectional":true,"from_interface":"i1","from_router":"Orlando","latency":340,"to_interface":"i0","to_router":"Jacksonville","weight":10},{"bandwidth":45000,"bidirectional":true,"from_interface":"i1","from_router":"Jacksonville","latency":1115,"to_interface":"i1","to_router":"Raleigh","weight":10},{"bandwidth":45000,"bidirectional":true,"from_interface":"i0","from_router":"Akron","latency":86,"to_interface":"i0","to_router":"Cleveland","weight":10},{"bandwidth":45000,"bidirectional":true,"from_interface":"i1","from_router":"Akron","latency":867,"to_interface":"i1","to_router":"Chicago","weight":10},{"bandwidth":45000,"bidirectional":true,"from_interface":"i2","from_router":"Akron","latency":249,"to_interface":"i1","to_router":"Pittsburgh2","weight":10},{"bandwidth":45000,"bidirectional":true,"from_interface":"i0","from_router":"Hong_Kong2","latency":1119,"to_interface":"i1","to_router":"San_Francisco","weight":10},{"bandwidth":45000,"bidirectional":true,"from_interface":"i0","from_router":"Tokyo","latency":1119,"to_interface":"i2","to_router":"San_Francisco","weight":10},{"bandwidth":45000,"bidirectional":true,"from_interface":"i3","from_router":"San_Francisco","latency":2544,"to_interface":"i0","to_router":"Denver","weight":10},{"bandwidth":45000,"bidirectional":true,"from_interface":"i4","from_router":"San_Francisco","latency":936,"to_interface":"i1","to_router":"Los_Angeles","weight":10},{"bandwidth":45000,"bidirectional":true,"from_interface":"i1","from_router":"Denver","latency":1490,"to_interface":"i1","to_router":"Kansas_City","weight":10},{"bandwidth":45000,"bidirectional":true,"from_interface":"i2","from_router":"Kansas_City","latency":1110,"to_interface":"i2","to_router":"Chicago","weight":10}],"name":"Cwix","routers":[{"interfaces":[{"names":["i0","i1"],"routing_table":{}}],"location":{"latitude":39.95234,"longitude":-75.16379},"name":"Philadelphia"},{"interfaces":[{"names":["i0","i1"],"routing_table":{}}],"location":{"latitude":40.44062,"longitude":-79.99589},"name":"Pittsburgh"},{"interfaces":[{"names":["i0","i1"],"routing_table":{}}],"location":{"latitude":37.55376,"longitude":-77.46026},"name":"Richmond"},{"interfaces":[{"names":["i0","i1","i2","i3","i4","i5","i6","i7","i8","i9"],"routing_table":{}}],"location":{"latitude":39.29038,"longitude":-76.61219},"name":"Baltimore"},{"interfaces":[{"names":["i0","i1"],"routing_table":{}}],"location":{"latitude":42.35843,"longitude":-71.05977},"name":"Boston"},{"interfaces":[{"names":["i0","i1","i2","i3"],"routing_table":{}}],"location":{"latitude":32.78306,"longitude":-96.80667},"name":"Dallas"},{"interfaces":[{"names":["i0","i1","i2","i3","i4","i5","i6","i7","i8"],"routing_table":{}}],"location":{"latitude":40.71427,"longitude":-74.00597},"name":"New_York"},{"interfaces":[{"names":["i0","i1"],"routing_table":{}}],"location":{"latitude":41.76371,"longitude":-72.68509},"name":"Hartford"},{"interfaces":[{"names":["i0"],"routing_table":{}}],"location":{"latitude":29.76328,"longitude":-95.36327},"name":"Houston"},{"interfaces":[{"names":["i0","i1","i2"],"routing_table":{}}],"location":{"latitude":33.749,"longitude":-84.38798},"name":"Atlanta"},{"interfaces":[{"names":["i0"],"routing_table":{}}],"name":"Hong_Kong"},{"interfaces":[{"names":["i0"],"routing_table":{}}],"name":"Barbados"},{"interfaces":[{"names":["i0"],"routing_table":{}}],"name":"Vienna"},{"interfaces":[{"names":["i0"],"routing_table":{}}],"name":"London"},{"interfaces":[{"names":["i0"],"routing_table":{}}],"name":"Sydney"},{"interfaces":[{"names":["i0"],"routing_table":{}}],"name":"Paris"},{"interfaces":[{"names":["i0"],"routing_table":{}}],"name":"London2"},{"interfaces":[{"names":["i0"],"routing_table":{}}],"name":"Bahrain"},{"interfaces":[{"names":["i0","i1","i2"],"routing_table":{}}],"location":{"latitude":26.12231,"longitude":-80.14338},"name":"Fort_Lauderdale"},{"interfaces":[{"names":["i0","i1"],"routing_table":{}}],"location":{"latitude":28.53834,"longitude":-81.37924},"name":"Orlando"},{"interfaces":[{"names":["i0","i1"],"routing_table":{}}],"location":{"latitude":30.33218,"longitude":-81.65565},"name":"Jacksonville"},{"interfaces":[{"names":["i0","i1"],"routing_table":{}}],"location":{"latitude":35.7721,"longitude":-78.63861},"name":"Raleigh"},{"interfaces":[{"names":["i0"],"routing_table":{}}],"name":"Barbados2"},{"interfaces":[{"names":["i0"],"routing_table":{}}],"name":"Frankfurt"},{"interfaces":[{"names":["i0","i1"],"routing_table":{}}],"location":{"latitude":27.94752,"longitude":-82.45843},"name":"Tampa"},{"interfaces":[{"names":["i0"],"routing_table":{}}],"location":{"latitude":25.77427,"longitude":-80.19366},"name":"Miami"},{"interfaces":[{"names":["i0","i1","i2"],"routing_table":{}}],"location":{"latitude":41.08144,"longitude":-81.51901},"name":"Akron"},{"interfaces":[{"names":["i0","i1"],"routing_table":{}}],"location":{"latitude":40.44062,"longitude":-79.99589},"name":"Pittsburgh2"},{"interfaces":[{"names":["i0"],"routing_table":{}}],"name":"Hong_Kong2"},{"interfaces":[{"names":["i0"],"routing_table":{}}],"name":"Tokyo"},{"interfaces":[{"names":["i0","i1","i2","i3","i4"],"routing_table":{}}],"location":{"latitude":37.77493,"longitude":-122.41942},"name":"San_Francisco"},{"interfaces":[{"names":["i0","i1"],"routing_table":{}}],"location":{"latitude":34.05223,"longitude":-118.24368},"name":"Los_Angeles"},{"interfaces":[{"names":["i0","i1"],"routing_table":{}}],"location":{"latitude":39.73915,"longitude":-104.9847},"name":"Denver"},{"interfaces":[{"names":["i0","i1","i2"],"routing_table":{}}],"location":{"latitude":39.11417,"longitude":-94.62746},"name":"Kansas_City"},{"interfaces":[{"names":["i0","i1","i2"],"routing_table":{}}],"location":{"latitude":41.85003,"longitude":-87.65005},"name":"Chicago"},{"interfaces":[{"names":["i0"],"routing_table":{}}],"location":{"latitude":41.4995,"longitude":-81.69541},"name":"Cleveland"}]}}
