{"network":{"links":[{"bandwidth":50000,"bidirectional":true,"from_interface":"i0","from_router":"KIAD-C","latency":10,"to_interface":"i0","to_router":"UoK-C","weight":200},{"bandwidth":50000,"bidirectional":true,"from_interface":"i0","from_router":"Canterbury_College","latency":10,"to_interface":"i1","to_router":"UoK-C","weight":200},{"bandwidth":50000,"bidirectional":true,"from_interface":"i0","from_router":"Mid_Kent_College","latency":59,"to_interface":"i0","to_router":"University_of_Greenwich","weight":200},{"bandwidth":50000,"bidirectional":true,"from_interface":"i0","from_router":"South_Kent_College_-_Ashford","latency":16,"to_interface":"i0","to_router":"IC-Wye","weight":200},{"bandwidth":50000,"bidirectional":true,"from_interface":"i0","from_router":"KIAD-O","latency":16,"to_interface":"i0","to_router":"Blue_Bell_Hill","weight":200},{"bandwidth":50000,"bidirectional":true,"from_interface":"i0","from_router":"Thanet_College","latency":8,"to_interface":"i0","to_router":"CCCU-T","weight":200},{"bandwidth":50000,"bidirectional":true,"from_interface":"i0","from_router":"Hilderstone_College","latency":49,"to_interface":"i2","to_router":"UoK-C","weight":200},{"bandwidth":50000,"bidirectional":true,"from_interface":"i0","from_router":"Kent_ACL","latency":65,"to_interface":"i1","to_router":"University_of_Greenwich","weight":200},{"bandwidth":50000,"bidirectional":true,"from_interface":"i0","from_router":"Hadlow_College","latency":13,"to_interface":"i0","to_router":"Tonbridge","weight":200},{"bandwidth":155000,"bidirectional":true,"from_interface":"i0","from_router":"NTL-Wye","latency":55,"to_interface":"i0","to_router":"Cranbrook","weight":64},{"bandwidth":155000,"bidirectional":true,"from_interface":"i1","from_router":"NTL-Wye","latency":5,"to_interface":"i1","to_router":"IC-Wye","weight":64},{"bandwidth":155000,"bidirectional":true,"from_interface":"i1","from_router":"Cranbrook","latency":51,"to_interface":"i1","to_router":"Blue_Bell_Hill","weight":64},{"bandwidth":50000,"bidirectional":true,"from_interface":"i1","from_router":"Tonbridge","latency":12,"to_interface":"i0","to_router":"CCCU-S","weight":200},{"bandwidth":50000,"bidirectional":true,"from_interface":"i0","from_router":"West_Kent_College","latency":12,"to_interface":"i1","to_router":"CCCU-S","weight":200},{"bandwidth":155000,"bidirectional":true,"from_interface":"i3","from_router":"UoK-C","latency":14,"to_interface":"i0","to_router":"Dunkirk","weight":64},{"bandwidth":1000000,"bidirectional":true,"from_interface":"i4","from_router":"UoK-C","latency":122,"to_interface":"i2","to_router":"University_of_Greenwich","weight":10},{"bandwidth":155000,"bidirectional":true,"from_interface":"i5","from_router":"UoK-C","latency":46,"to_interface":"i1","to_router":"CCCU-T","weight":64},{"bandwidth":155000,"bidirectional":true,"from_interface":"i2","from_router":"Blue_Bell_Hill","latency":19,"to_interface":"i0","to_router":"Beacon_Hill","weight":64},{"bandwidth":50000,"bidirectional":true,"from_interface":"i3","from_router":"Blue_Bell_Hill","latency":50,"to_interface":"i2","to_router":"CCCU-S","weight":200},{"bandwidth":155000,"bidirectional":true,"from_interface":"i4","from_router":"Blue_Bell_Hill","latency":58,"to_interface":"i3","to_router":"University_of_Greenwich","weight":64},{"bandwidth":155000,"bidirectional":true,"from_interface":"i1","from_router":"Beacon_Hill","latency":71,"to_interface":"i1","to_router":"Dunkirk","weight":64},{"bandwidth":50000,"bidirectional":true,"from_interface":"i2","from_router":"Beacon_Hill","latency":15,"to_interface":"i0","to_router":"KIAD-R","weight":200},{"bandwidth":155000,"bidirectional":true,"from_interface":"i3","from_router":"Beacon_Hill","latency":47,"to_interface":"i4","to_router":"University_of_Greenwich","weight":64},{"bandwidth":50000,"bidirectional":true,"from_interface":"i0","from_router":"NW_Kent_College_-_Dartford","latency":21,"to_interface":"i0","to_router":"UoG-AH","weight":200},{"bandwidth":1000000,"bidirectional":true,"from_interface":"i1","from_router":"UoG-AH","latency":5,"to_interface":"i5","to_router":"University_of_Greenwich","weight":10},{"bandwidth":1000000,"bidirectional":true,"from_interface":"i6","from_router":"University_of_Greenwich","latency":69,"to_interface":"i0","to_router":"EIS-Maidstone","weight":10},{"bandwidth":50000,"bidirectional":true,"from_interface":"i7","from_router":"University_of_Greenwich","latency":62,"to_interface":"i3","to_router":"CCCU-S","weight":200},{"bandwidth":50000,"bidirectional":true,"from_interface":"i8","from_router":"University_of_Greenwich","latency":39,"to_interface":"i0","to_router":"Dorton_College","weight":200},{"bandwidth":155000,"bidirectional":true,"from_interface":"i0","from_router":"CCCU-C","latency":30,"to_interface":"i2","to_router":"IC-Wye","weight":64}],"name":"KentmanAug2005","routers":[{"interfaces":[{"names":["i0"],"routing_table":{}}],"location":{"latitude":51.27537,"longitude":1.09078},"name":"KIAD-C"},{"interfaces":[{"names":["i0"],"routing_table":{}}],"location":{"latitude":51.27402,"longitude":1.08782},"name":"Canterbury_College"},{"interfaces":[{"names":["i0"],"routing_table":{}}],"location":{"latitude":51.39485,"longitude":0.54608},"name":"Mid_Kent_College"},{"interfaces":[{"names":["i0"],"routing_table":{}}],"location":{"latitude":51.13959,"longitude":0.86101},"name":"South_Kent_College_-_Ashford"},{"interfaces":[{"names":["i0"],"routing_table":{}}],"location":{"latitude":51.27115,"longitude":0.49799},"name":"KIAD-O"},{"interfaces":[{"names":["i0"],"routing_table":{}}],"location":{"latitude":51.35426,"longitude":1.43483},"name":"Thanet_College"},{"interfaces":[{"names":["i0"],"routing_table":{}}],"location":{"latitude":51.36106,"longitude":1.43006},"name":"Hilderstone_College"},{"interfaces":[{"names":["i0"],"routing_table":{}}],"location":{"latitude":51.27631,"longitude":0.52191},"name":"Kent_ACL"},{"interfaces":[{"names":["i0"],"routing_table":{}}],"location":{"latitude":51.21667,"longitude":0.33333},"name":"Hadlow_College"},{"interfaces":[{"names":["i0","i1"],"routing_table":{}}],"location":{"latitude":51.18249,"longitude":0.93678},"name":"NTL-Wye"},{"interfaces":[{"names":["i0","i1"],"routing_table":{}}],"location":{"latitude":51.08333,"longitude":0.53333},"name":"Cranbrook"},{"interfaces":[{"names":["i0","i1"],"routing_table":{}}],"location":{"latitude":51.18333,"longitude":0.28333},"name":"Tonbridge"},{"interfaces":[{"names":["i0"],"routing_table":{}}],"location":{"latitude":51.18787,"longitude":0.2647},"name":"West_Kent_College"},{"interfaces":[{"names":["i0","i1","i2","i3","i4","i5"],"routing_table":{}}],"location":{"latitude":51.29762,"longitude":1.06121},"name":"UoK-C"},{"interfaces":[{"names":["i0","i1","i2","i3","i4"],"routing_table":{}}],"location":{"latitude":51.33265,"longitude":0.5046},"name":"Blue_Bell_Hill"},{"interfaces":[{"names":["i0","i1","i2","i3"],"routing_table":{}}],"location":{"latitude":51.4,"longitude":0.43333},"name":"Beacon_Hill"},{"interfaces":[{"names":["i0","i1"],"routing_table":{}}],"location":{"latitude":51.29169,"longitude":0.97929},"name":"Dunkirk"},{"interfaces":[{"names":["i0"],"routing_table":{}}],"location":{"latitude":51.45,"longitude":0.21667},"name":"NW_Kent_College_-_Dartford"},{"interfaces":[{"names":["i0"],"routing_table":{}}],"location":{"latitude":51.37992,"longitude":0.51438},"name":"KIAD-R"},{"interfaces":[{"names":["i0","i1"],"routing_table":{}}],"location":{"latitude":51.44628,"longitude":0.07703},"name":"UoG-AH"},{"interfaces":[{"names":["i0","i1","i2","i3","i4","i5","i6","i7","i8"],"routing_table":{}}],"location":{"latitude":51.44628,"longitude":0.07703},"name":"University_of_Greenwich"},{"interfaces":[{"names":["i0"],"routing_table":{}}],"location":{"latitude":51.27934,"longitude":1.08936},"name":"CCCU-C"},{"interfaces":[{"names":["i0","i1","i2"],"routing_table":{}}],"location":{"latitude":51.18249,"longitude":0.93678},"name":"IC-Wye"},{"interfaces":[{"names":["i0"],"routing_table":{}}],"location":{"latitude":51.25665,"longitude":0.54953},"name":"EIS-Maidstone"},{"interfaces":[{"names":["i0","i1","i2","i3"],"routing_table":{}}],"location":{"latitude":51.15222,"longitude":0.24307},"name":"CCCU-S"},{"interfaces":[{"names":["i0","i1"],"routing_table":{}}],"location":{"latitude":51.35895,"longitude":1.40616},"name":"CCCU-T"},{"interfaces":[{"names":["i0"],"routing_table":{}}],"location":{"latitude":51.28554,"longitude":0.21928},"name":"Dorton_College"}]}}
