{"network":{"links":[{"bandwidth":1000000,"bidirectional":true,"from_interface":"i0","from_router":"Washington_CDC","latency":1457,"to_interface":"i0","to_router":"Atlanta","weight":10},{"bandwidth":1000000,"bidirectional":true,"from_interface":"i1","from_router":"Washington_CDC","latency":1061,"to_interface":"i0","to_router":"Boston","weight":10},{"bandwidth":1000000,"bidirectional":true,"from_interface":"i2","from_router":"Washington_CDC","latency":9828,"to_interface":"i0","to_router":"London","weight":10},{"bandwidth":1000000,"bidirectional":true,"from_interface":"i3","from_router":"Washington_CDC","latency":100,"to_interface":"i0","to_router":"Baltimore","weight":10},{"bandwidth":1000000,"bidirectional":true,"from_interface":"i0","from_router":"New_York","latency":9767,"to_interface":"i0","to_router":"Amsterdam","weight":10},{"bandwidth":1000000,"bidirectional":true,"from_interface":"i1","from_router":"New_York","latency":1913,"to_interface":"i0","to_router":"Chicago","weight":10},{"bandwidth":1000000,"bidirectional":true,"from_interface":"i2","from_router":"New_York","latency":514,"to_interface":"i1","to_router":"Boston","weight":10},{"bandwidth":1000000,"bidirectional":true,"from_interface":"i3","from_router":"New_York","latency":9281,"to_interface":"i1","to_router":"London","weight":10},{"bandwidth":1000000,"bidirectional":true,"from_interface":"i4","from_router":"New_York","latency":220,"to_interface":"i0","to_router":"Philadelphia","weight":10},{"bandwidth":1000000,"bidirectional":true,"from_interface":"i1","from_router":"Atlanta","latency":1882,"to_interface":"i0","to_router":"Houston","weight":10},{"bandwidth":1000000,"bidirectional":true,"from_interface":"i2","from_router":"Atlanta","latency":1627,"to_interface":"i0","to_router":"Miami","weight":10},{"bandwidth":1000000,"bidirectional":true,"from_interface":"i1","from_router":"Miami","latency":2595,"to_interface":"i1","to_router":"Houston","weight":10},{"bandwidth":1000000,"bidirectional":true,"from_interface":"i2","from_router":"London","latency":577,"to_interface":"i0","to_router":"Paris","weight":10},{"bandwidth":1000000,"bidirectional":true,"from_interface":"i3","from_router":"London","latency":599,"to_interface":"i1","to_router":"Amsterdam","weight":10},{"bandwidth":1000000,"bidirectional":true,"from_interface":"i1","from_router":"Philadelphia","latency":245,"to_interface":"i1","to_router":"Baltimore","weight":10},{"bandwidth":1000000,"bidirectional":true,"from_interface":"i2","from_router":"Amsterdam","latency":611,"to_interface":"i0","to_router":"Frankfurt","weight":10},{"bandwidth":1000000,"bidirectional":true,"from_interface":"i1","from_router":"Frankfurt","latency":801,"to_interface":"i1","to_router":"Paris","weight":10},{"bandwidth":1000000,"bidirectional":true,"from_interface":"i2","from_router":"Houston","latency":2724,"to_interface":"i0","to_router":"Phoenix","weight":10},{"bandwidth":1000000,"bidirectional":true,"from_interface":"i3","from_router":"Houston","latency":609,"to_interface":"i0","to_router":"Dallas","weight":10},{"bandwidth":1000000,"bidirectional":true,"from_interface":"i4","from_router":"Houston","latency":397,"to_interface":"i0","to_router":"Austin","weight":10},{"bandwidth":1000000,"bidirectional":true,"from_interface":"i0","from_router":"None","latency":2572,"to_interface":"i1","to_router":"Dallas","weight":10},{"bandwidth":1000000,"bidirectional":true,"from_interface":"i1","from_router":"None","latency":2572,"to_interface":"i1","to_router":"Chicago","weight":10},{"bandwidth":1000000,"bidirectional":true,"from_interface":"i2","from_router":"None","latency":2572,"to_interface":"i0","to_router":"Denver","weight":10},{"bandwidth":1000000,"bidirectional":true,"from_interface":"i2","from_router":"Dallas","latency":493,"to_interface":"i1","to_router":"Austin","weight":10},{"bandwidth":1000000,"bidirectional":true,"from_interface":"i0","from_router":"Seattle","latency":393,"to_interface":"i0","to_router":"Portland","weight":10},{"bandwidth":1000000,"bidirectional":true,"from_interface":"i1","from_router":"Seattle","latency":4649,"to_interface":"i2","to_router":"Chicago","weight":10},{"bandwidth":1000000,"bidirectional":true,"from_interface":"i1","from_router":"Portland","latency":1440,"to_interface":"i0","to_router":"San_Francisco","weight":10},{"bandwidth":1000000,"bidirectional":true,"from_interface":"i0","from_router":"Tokyo","latency":13800,"to_interface":"i1","to_router":"San_Francisco","weight":10},{"bandwidth":1000000,"bidirectional":true,"from_interface":"i2","from_router":"San_Francisco","latency":936,"to_interface":"i0","to_router":"Los_Angeles","weight":10},{"bandwidth":1000000,"bidirectional":true,"from_interface":"i3","from_router":"San_Francisco","latency":2544,"to_interface":"i1","to_router":"Denver","weight":10},{"bandwidth":1000000,"bidirectional":true,"from_interface":"i1","from_router":"Los_Angeles","latency":961,"to_interface":"i1","to_router":"Phoenix","weight":10}],"name":"Abvt","routers":[{"interfaces":[{"names":["i0","i1","i2","i3"],"routing_table":{}}],"location":{"latitude":38.89511,"longitude":-77.03637},"name":"Washington_CDC"},{"interfaces":[{"names":["i0","i1","i2","i3","i4"],"routing_table":{}}],"location":{"latitude":40.71427,"longitude":-74.00597},"name":"New_York"},{"interfaces":[{"names":["i0","i1","i2"],"routing_table":{}}],"location":{"latitude":33.749,"longitude":-84.38798},"name":"Atlanta"},{"interfaces":[{"names":["i0","i1"],"routing_table":{}}],"location":{"latitude":25.77427,"longitude":-80.19366},"name":"Miami"},{"interfaces":[{"names":["i0","i1"],"routing_table":{}}],"location":{"latitude":42.35843,"longitude":-71.05977},"name":"Boston"},{"interfaces":[{"names":["i0","i1","i2","i3"],"routing_table":{}}],"location":{"latitude":51.50853,"longitude":-0.12574},"name":"London"},{"interfaces":[{"names":["i0","i1"],"routing_table":{}}],"location":{"latitude":39.95234,"longitude":-75.16379},"name":"Philadelphia"},{"interfaces":[{"names":["i0","i1"],"routing_table":{}}],"location":{"latitude":39.29038,"longitude":-76.61219},"name":"Baltimore"},{"interfaces":[{"names":["i0","i1","i2"],"routing_table":{}}],"location":{"latitude":52.37403,"longitude":4.88969},"name":"Amsterdam"},{"interfaces":[{"names":["i0","i1"],"routing_table":{}}],"location":{"latitude":50.11667,"longitude":8.68333},"name":"Frankfurt"},{"interfaces":[{"names":["i0","i1","i2","i3","i4"],"routing_table":{}}],"location":{"latitude":29.76328,"longitude":-95.36327},"name":"Houston"},{"interfaces":[{"names":["i0","i1","i2"],"routing_table":{}}],"name":"None"},{"interfaces":[{"names":["i0","i1"],"routing_table":{}}],"location":{"latitude":48.85341,"longitude":2.3488},"name":"Paris"},{"interfaces":[{"names":["i0","i1","i2"],"routing_table":{}}],"location":{"latitude":32.78306,"longitude":-96.80667},"name":"Dallas"},{"interfaces":[{"names":["i0","i1"],"routing_table":{}}],"location":{"latitude":30.26715,"longitude":-97.74306},"name":"Austin"},{"interfaces":[{"names":["i0","i1"],"routing_table":{}}],"location":{"latitude":47.60621,"longitude":-122.33207},"name":"Seattle"},{"interfaces":[{"names":["i0","i1"],"routing_table":{}}],"location":{"latitude":45.52345,"longitude":-122.67621},"name":"Portland"},{"interfaces":[{"names":["i0"],"routing_table":{}}],"location":{"latitude":35.61488,"longitude":139.5813},"name":"Tokyo"},{"interfaces":[{"names":["i0","i1","i2","i3"],"routing_table":{}}],"location":{"latitude":37.77493,"longitude":-122.41942},"name":"San_Francisco"},{"interfaces":[{"names":["i0","i1"],"routing_table":{}}],"location":{"latitude":34.05223,"longitude":-118.24368},"name":"Los_Angeles"},{"interfaces":[{"names":["i0","i1"],"routing_table":{}}],"location":{"latitude":33.44838,"longitude":-112.07404},"name":"Phoenix"},{"interfaces":[{"names":["i0","i1"],"routing_table":{}}],"location":{"latitude":39.73915,"longitude":-104.9847},"name":"Denver"},{"interfaces":[{"names":["i0","i1","i2"],"routing_table":{}}],"location":{"latitude":41.85003,"longitude":-87.65005},"name":"Chicago"}]}}
