{"network":{"links":[{"bandwidth":500000,"bidirectional":true,"from_interface":"i0","from_router":"Denizli","latency":312,"to_interface":"i0","to_router":"iZMiR","weight":200},{"bandwidth":500000,"bidirectional":true,"from_interface":"i0","from_router":"Usak","latency":336,"to_interface":"i1","to_router":"iZMiR","weight":200},{"bandwidth":500000,"bidirectional":true,"from_interface":"i0","from_router":"Aydin","latency":151,"to_interface":"i2","to_router":"iZMiR","weight":200},{"bandwidth":500000,"bidirectional":true,"from_interface":"i0","from_router":"Mugla","latency":289,"to_interface":"i3","to_router":"iZMiR","weight":200},{"bandwidth":500000,"bidirectional":true,"from_interface":"i0","from_router":"Burdur","latency":555,"to_interface":"i0","to_router":"Ankara","weight":200},{"bandwidth":500000,"bidirectional":true,"from_interface":"i0","from_router":"Antalya","latency":644,"to_interface":"i1","to_router":"Ankara","weight":200},{"bandwidth":500000,"bidirectional":true,"from_interface":"i0","from_router":"Afyonkarahisar","latency":501,"to_interface":"i4","to_router":"iZMiR","weight":200},{"bandwidth":500000,"bidirectional":true,"from_interface":"i0","from_router":"Isparta","latency":524,"to_interface":"i2","to_router":"Ankara","weight":200},{"bandwidth":500000,"bidirectional":true,"from_interface":"i0","from_router":"Batman","latency":1255,"to_interface":"i3","to_router":"Ankara","weight":200},{"bandwidth":500000,"bidirectional":true,"from_interface":"i0","from_router":"Siirt","latency":1364,"to_interface":"i4","to_router":"Ankara","weight":200},{"bandwidth":500000,"bidirectional":true,"from_interface":"i0","from_router":"Gazimagusa","latency":638,"to_interface":"i5","to_router":"Ankara","weight":200},{"bandwidth":500000,"bidirectional":true,"from_interface":"i0","from_router":"Yalova","latency":85,"to_interface":"i0","to_router":"Istanbul","weight":200},{"bandwidth":500000,"bidirectional":true,"from_interface":"i0","from_router":"Amasya","latency":447,"to_interface":"i6","to_router":"Ankara","weight":200},{"bandwidth":500000,"bidirectional":true,"from_interface":"i0","from_router":"Tokat","latency":534,"to_interface":"i7","to_router":"Ankara","weight":200},{"bandwidth":500000,"bidirectional":true,"from_interface":"i0","from_router":"Nigde","latency":452,"to_interface":"i8","to_router":"Ankara","weight":200},{"bandwidth":500000,"bidirectional":true,"from_interface":"i0","from_router":"Hatay","latency":844,"to_interface":"i9","to_router":"Ankara","weight":200},{"bandwidth":500000,"bidirectional":true,"from_interface":"i0","from_router":"Adiyaman","latency":882,"to_interface":"i10","to_router":"Ankara","weight":200},{"bandwidth":500000,"bidirectional":true,"from_interface":"i0","from_router":"K._Maras","latency":638,"to_interface":"i11","to_router":"Ankara","weight":200},{"bandwidth":500000,"bidirectional":true,"from_interface":"i0","from_router":"Erzurum","latency":1200,"to_interface":"i12","to_router":"Ankara","weight":200},{"bandwidth":500000,"bidirectional":true,"from_interface":"i0","from_router":"Bartin","latency":330,"to_interface":"i13","to_router":"Ankara","weight":200},{"bandwidth":500000,"bidirectional":true,"from_interface":"i0","from_router":"Karabuk","latency":245,"to_interface":"i14","to_router":"Ankara","weight":200},{"bandwidth":500000,"bidirectional":true,"from_interface":"i0","from_router":"Mersin","latency":637,"to_interface":"i15","to_router":"Ankara","weight":200},{"bandwidth":500000,"bidirectional":true,"from_interface":"i0","from_router":"Karaman","latency":514,"to_interface":"i16","to_router":"Ankara","weight":200},{"bandwidth":500000,"bidirectional":true,"from_interface":"i0","from_router":"Aksaray","latency":337,"to_interface":"i17","to_router":"Ankara","weight":200},{"bandwidth":500000,"bidirectional":true,"from_interface":"i0","from_router":"Konya","latency":389,"to_interface":"i18","to_router":"Ankara","weight":200},{"bandwidth":500000,"bidirectional":true,"from_interface":"i0","from_router":"Sinop","latency":512,"to_interface":"i19","to_router":"Ankara","weight":200},{"bandwidth":500000,"bidirectional":true,"from_interface":"i0","from_router":"Samsun","latency":555,"to_interface":"i20","to_router":"Ankara","weight":200},{"bandwidth":500000,"bidirectional":true,"from_interface":"i0","from_router":"Adana","latency":653,"to_interface":"i21","to_router":"Ankara","weight":200},{"bandwidth":500000,"bidirectional":true,"from_interface":"i0","from_router":"Bilecik","latency":221,"to_interface":"i1","to_router":"Istanbul","weight":200},{"bandwidth":500000,"bidirectional":true,"from_interface":"i0","from_router":"Giresun","latency":806,"to_interface":"i22","to_router":"Ankara","weight":200},{"bandwidth":500000,"bidirectional":true,"from_interface":"i0","from_router":"Hakkari","latency":1635,"to_interface":"i23","to_router":"Ankara","weight":200},{"bandwidth":500000,"bidirectional":true,"from_interface":"i0","from_router":"Elazig","latency":946,"to_interface":"i24","to_router":"Ankara","weight":200},{"bandwidth":500000,"bidirectional":true,"from_interface":"i0","from_router":"Ardahan","latency":1408,"to_interface":"i25","to_router":"Ankara","weight":200},{"bandwidth":500000,"bidirectional":true,"from_interface":"i0","from_router":"Artvin","latency":1287,"to_interface":"i26","to_router":"Ankara","weight":200},{"bandwidth":500000,"bidirectional":true,"from_interface":"i0","from_router":"Corum","latency":323,"to_interface":"i27","to_router":"Ankara","weight":200},{"bandwidth":500000,"bidirectional":true,"from_interface":"i1","from_router":"Corum","latency":423,"to_interface":"i0","to_router":"Ordu","weight":200},{"bandwidth":500000,"bidirectional":true,"from_interface":"i0","from_router":"Bingol","latency":1114,"to_interface":"i28","to_router":"Ankara","weight":200},{"bandwidth":500000,"bidirectional":true,"from_interface":"i0","from_router":"Van","latency":1537,"to_interface":"i29","to_router":"Ankara","weight":200},{"bandwidth":500000,"bidirectional":true,"from_interface":"i0","from_router":"Osmaniye","latency":654,"to_interface":"i0","to_router":"Kirikkale","weight":200},{"bandwidth":500000,"bidirectional":true,"from_interface":"i0","from_router":"Agri","latency":511,"to_interface":"i0","to_router":"Erzincan","weight":200},{"bandwidth":500000,"bidirectional":true,"from_interface":"i0","from_router":"Mardin","latency":981,"to_interface":"i0","to_router":"Yozgat","weight":200},{"bandwidth":500000,"bidirectional":true,"from_interface":"i0","from_router":"Malatya","latency":841,"to_interface":"i30","to_router":"Ankara","weight":200},{"bandwidth":500000,"bidirectional":true,"from_interface":"i0","from_router":"Sirnak","latency":1461,"to_interface":"i31","to_router":"Ankara","weight":200},{"bandwidth":500000,"bidirectional":true,"from_interface":"i0","from_router":"Diyarbakir","latency":1128,"to_interface":"i32","to_router":"Ankara","weight":200},{"bandwidth":500000,"bidirectional":true,"from_interface":"i1","from_router":"Yozgat","latency":282,"to_interface":"i33","to_router":"Ankara","weight":200},{"bandwidth":500000,"bidirectional":true,"from_interface":"i0","from_router":"Kayseri","latency":441,"to_interface":"i34","to_router":"Ankara","weight":200},{"bandwidth":500000,"bidirectional":true,"from_interface":"i0","from_router":"Kars","latency":1456,"to_interface":"i35","to_router":"Ankara","weight":200},{"bandwidth":500000,"bidirectional":true,"from_interface":"i0","from_router":"Nevsehir","latency":363,"to_interface":"i36","to_router":"Ankara","weight":200},{"bandwidth":500000,"bidirectional":true,"from_interface":"i0","from_router":"Gaziantep","latency":848,"to_interface":"i37","to_router":"Ankara","weight":200},{"bandwidth":500000,"bidirectional":true,"from_interface":"i1","from_router":"Kirikkale","latency":98,"to_interface":"i38","to_router":"Ankara","weight":200},{"bandwidth":500000,"bidirectional":true,"from_interface":"i0","from_router":"Kilis","latency":862,"to_interface":"i39","to_router":"Ankara","weight":200},{"bandwidth":5000000,"bidirectional":true,"from_interface":"i0","from_router":"GEANT","latency":638,"to_interface":"i2","to_router":"Istanbul","weight":20},{"bandwidth":500000,"bidirectional":true,"from_interface":"i0","from_router":"Kirsehir","latency":240,"to_interface":"i40","to_router":"Ankara","weight":200},{"bandwidth":500000,"bidirectional":true,"from_interface":"i0","from_router":"Cankiri","latency":170,"to_interface":"i41","to_router":"Ankara","weight":200},{"bandwidth":500000,"bidirectional":true,"from_interface":"i0","from_router":"Kastamonu","latency":304,"to_interface":"i42","to_router":"Ankara","weight":200},{"bandwidth":500000,"bidirectional":true,"from_interface":"i0","from_router":"Mus","latency":1262,"to_interface":"i43","to_router":"Ankara","weight":200},{"bandwidth":500000,"bidirectional":true,"from_interface":"i0","from_router":"Eskisehir","latency":337,"to_interface":"i44","to_router":"Ankara","weight":200},{"bandwidth":500000,"bidirectional":true,"from_interface":"i0","from_router":"Kocaeli","latency":147,"to_interface":"i3","to_router":"Istanbul","weight":200},{"bandwidth":500000,"bidirectional":true,"from_interface":"i0","from_router":"Sakarya","latency":213,"to_interface":"i4","to_router":"Istanbul","weight":200},{"bandwidth":500000,"bidirectional":true,"from_interface":"i0","from_router":"Bitlis","latency":1362,"to_interface":"i45","to_router":"Ankara","weight":200},{"bandwidth":599000,"bidirectional":true,"from_interface":"i0","from_router":"Bursa","latency":158,"to_interface":"i5","to_router":"Istanbul","weight":166},{"bandwidth":500000,"bidirectional":true,"from_interface":"i0","from_router":"Bolu","latency":237,"to_interface":"i46","to_router":"Ankara","weight":200},{"bandwidth":500000,"bidirectional":true,"from_interface":"i0","from_router":"Duzce","latency":297,"to_interface":"i47","to_router":"Ankara","weight":200},{"bandwidth":500000,"bidirectional":true,"from_interface":"i0","from_router":"Zonguldak","latency":325,"to_interface":"i48","to_router":"Ankara","weight":200},{"bandwidth":500000,"bidirectional":true,"from_interface":"i0","from_router":"Rize","latency":1103,"to_interface":"i49","to_router":"Ankara","weight":200},{"bandwidth":500000,"bidirectional":true,"from_interface":"i0","from_router":"S._Urfa","latency":638,"to_interface":"i50","to_router":"Ankara","weight":200},{"bandwidth":5000000,"bidirectional":true,"from_interface":"i0","from_router":"Internet","latency":638,"to_interface":"i51","to_router":"Ankara","weight":20},{"bandwidth":5000000,"bidirectional":true,"from_interface":"i0","from_router":"Internet2","latency":638,"to_interface":"i6","to_router":"Istanbul","weight":20},{"bandwidth":500000,"bidirectional":true,"from_interface":"i0","from_router":"Trabzon","latency":993,"to_interface":"i52","to_router":"Ankara","weight":200},{"bandwidth":500000,"bidirectional":true,"from_interface":"i0","from_router":"Igdir","latency":1593,"to_interface":"i53","to_router":"Ankara","weight":200},{"bandwidth":500000,"bidirectional":true,"from_interface":"i0","from_router":"Manisa","latency":60,"to_interface":"i5","to_router":"iZMiR","weight":200},{"bandwidth":500000,"bidirectional":true,"from_interface":"i0","from_router":"Kutahya","latency":455,"to_interface":"i6","to_router":"iZMiR","weight":200},{"bandwidth":500000,"bidirectional":true,"from_interface":"i1","from_router":"Erzincan","latency":949,"to_interface":"i54","to_router":"Ankara","weight":200},{"bandwidth":500000,"bidirectional":true,"from_interface":"i0","from_router":"Sivas","latency":597,"to_interface":"i55","to_router":"Ankara","weight":200},{"bandwidth":10000000,"bidirectional":true,"from_interface":"i7","from_router":"Istanbul","latency":591,"to_interface":"i56","to_router":"Ankara","weight":10},{"bandwidth":500000,"bidirectional":true,"from_interface":"i8","from_router":"Istanbul","latency":279,"to_interface":"i0","to_router":"Kirklareli","weight":200},{"bandwidth":500000,"bidirectional":true,"from_interface":"i9","from_router":"Istanbul","latency":206,"to_interface":"i0","to_router":"Tekirdag","weight":200},{"bandwidth":500000,"bidirectional":true,"from_interface":"i10","from_router":"Istanbul","latency":359,"to_interface":"i0","to_router":"Edirne","weight":200},{"bandwidth":500000,"bidirectional":true,"from_interface":"i11","from_router":"Istanbul","latency":397,"to_interface":"i0","to_router":"Canakkale","weight":200},{"bandwidth":4999000,"bidirectional":true,"from_interface":"i12","from_router":"Istanbul","latency":551,"to_interface":"i7","to_router":"iZMiR","weight":20},{"bandwidth":599000,"bidirectional":true,"from_interface":"i8","from_router":"iZMiR","latency":871,"to_interface":"i57","to_router":"Ankara","weight":166},{"bandwidth":500000,"bidirectional":true,"from_interface":"i9","from_router":"iZMiR","latency":257,"to_interface":"i0","to_router":"Balikesin","weight":200}],"name":"Ulaknet","routers":[{"interfaces":[{"names":["i0"],"routing_table":{}}],"location":{"latitude":37.77417,"longitude":29.0875},"name":"Denizli"},{"interfaces":[{"names":["i0"],"routing_table":{}}],"location":{"latitude":38.67351,"longitude":29.4058},"name":"Usak"},{"interfaces":[{"names":["i0"],"routing_table":{}}],"location":{"latitude":37.84501,"longitude":27.83963},"name":"Aydin"},{"interfaces":[{"names":["i0"],"routing_table":{}}],"location":{"latitude":37.21807,"longitude":28.3665},"name":"Mugla"},{"interfaces":[{"names":["i0"],"routing_table":{}}],"location":{"latitude":37.72028,"longitude":30.29083},"name":"Burdur"},{"interfaces":[{"names":["i0"],"routing_table":{}}],"location":{"latitude":36.9125,"longitude":30.68972},"name":"Antalya"},{"interfaces":[{"names":["i0"],"routing_table":{}}],"location":{"latitude":38.75667,"longitude":30.54333},"name":"Afyonkarahisar"},{"interfaces":[{"names":["i0"],"routing_table":{}}],"location":{"latitude":37.76444,"longitude":30.55222},"name":"Isparta"},{"interfaces":[{"names":["i0"],"routing_table":{}}],"location":{"latitude":37.88738,"longitude":41.13221},"name":"Batman"},{"interfaces":[{"names":["i0"],"routing_table":{}}],"location":{"latitude":37.93262,"longitude":41.94025},"name":"Siirt"},{"interfaces":[{"names":["i0"],"routing_table":{}}],"name":"Gazimagusa"},{"interfaces":[{"names":["i0"],"routing_table":{}}],"location":{"latitude":40.65502,"longitude":29.27693},"name":"Yalova"},{"interfaces":[{"names":["i0"],"routing_table":{}}],"location":{"latitude":40.65333,"longitude":35.83306},"name":"Amasya"},{"interfaces":[{"names":["i0"],"routing_table":{}}],"location":{"latitude":40.31389,"longitude":36.55444},"name":"Tokat"},{"interfaces":[{"names":["i0"],"routing_table":{}}],"location":{"latitude":37.96583,"longitude":34.67935},"name":"Nigde"},{"interfaces":[{"names":["i0"],"routing_table":{}}],"location":{"latitude":36.20655,"longitude":36.15722},"name":"Hatay"},{"interfaces":[{"names":["i0"],"routing_table":{}}],"location":{"latitude":37.76441,"longitude":38.27629},"name":"Adiyaman"},{"interfaces":[{"names":["i0"],"routing_table":{}}],"name":"K._Maras"},{"interfaces":[{"names":["i0"],"routing_table":{}}],"location":{"latitude":39.90861,"longitude":41.27694},"name":"Erzurum"},{"interfaces":[{"names":["i0"],"routing_table":{}}],"location":{"latitude":41.63583,"longitude":32.3375},"name":"Bartin"},{"interfaces":[{"names":["i0"],"routing_table":{}}],"location":{"latitude":41.20488,"longitude":32.62768},"name":"Karabuk"},{"interfaces":[{"names":["i0"],"routing_table":{}}],"location":{"latitude":36.79526,"longitude":34.61792},"name":"Mersin"},{"interfaces":[{"names":["i0"],"routing_table":{}}],"location":{"latitude":37.18111,"longitude":33.215},"name":"Karaman"},{"interfaces":[{"names":["i0"],"routing_table":{}}],"location":{"latitude":38.37255,"longitude":34.02537},"name":"Aksaray"},{"interfaces":[{"names":["i0"],"routing_table":{}}],"location":{"latitude":37.86556,"longitude":32.4825},"name":"Konya"},{"interfaces":[{"names":["i0"],"routing_table":{}}],"location":{"latitude":42.03087,"longitude":35.17124},"name":"Sinop"},{"interfaces":[{"names":["i0"],"routing_table":{}}],"location":{"latitude":41.28667,"longitude":36.33},"name":"Samsun"},{"interfaces":[{"names":["i0"],"routing_table":{}}],"location":{"latitude":37.00167,"longitude":35.32889},"name":"Adana"},{"interfaces":[{"names":["i0"],"routing_table":{}}],"location":{"latitude":40.14192,"longitude":29.97932},"name":"Bilecik"},{"interfaces":[{"names":["i0"],"routing_table":{}}],"location":{"latitude":40.91698,"longitude":38.38741},"name":"Giresun"},{"interfaces":[{"names":["i0"],"routing_table":{}}],"location":{"latitude":37.57444,"longitude":43.74083},"name":"Hakkari"},{"interfaces":[{"names":["i0"],"routing_table":{}}],"location":{"latitude":38.67431,"longitude":39.22321},"name":"Elazig"},{"interfaces":[{"names":["i0"],"routing_table":{}}],"location":{"latitude":41.10871,"longitude":42.70222},"name":"Ardahan"},{"interfaces":[{"names":["i0"],"routing_table":{}}],"location":{"latitude":41.18222,"longitude":41.81944},"name":"Artvin"},{"interfaces":[{"names":["i0","i1"],"routing_table":{}}],"location":{"latitude":40.54889,"longitude":34.95333},"name":"Corum"},{"interfaces":[{"names":["i0"],"routing_table":{}}],"location":{"latitude":38.88472,"longitude":40.49389},"name":"Bingol"},{"interfaces":[{"names":["i0"],"routing_table":{}}],"location":{"latitude":38.49239,"longitude":43.38311},"name":"Van"},{"interfaces":[{"names":["i0"],"routing_table":{}}],"location":{"latitude":37.07417,"longitude":36.24778},"name":"Osmaniye"},{"interfaces":[{"names":["i0"],"routing_table":{}}],"location":{"latitude":39.71944,"longitude":43.05139},"name":"Agri"},{"interfaces":[{"names":["i0"],"routing_table":{}}],"location":{"latitude":40.98472,"longitude":37.87889},"name":"Ordu"},{"interfaces":[{"names":["i0"],"routing_table":{}}],"location":{"latitude":37.31309,"longitude":40.74357},"name":"Mardin"},{"interfaces":[{"names":["i0"],"routing_table":{}}],"location":{"latitude":38.35018,"longitude":38.31667},"name":"Malatya"},{"interfaces":[{"names":["i0"],"routing_table":{}}],"location":{"latitude":37.52278,"longitude":42.45944},"name":"Sirnak"},{"interfaces":[{"names":["i0"],"routing_table":{}}],"location":{"latitude":37.91583,"longitude":40.21889},"name":"Diyarbakir"},{"interfaces":[{"names":["i0","i1"],"routing_table":{}}],"location":{"latitude":39.82,"longitude":34.80444},"name":"Yozgat"},{"interfaces":[{"names":["i0"],"routing_table":{}}],"location":{"latitude":38.73222,"longitude":35.48528},"name":"Kayseri"},{"interfaces":[{"names":["i0"],"routing_table":{}}],"location":{"latitude":40.60199,"longitude":43.09495},"name":"Kars"},{"interfaces":[{"names":["i0"],"routing_table":{}}],"location":{"latitude":38.625,"longitude":34.71222},"name":"Nevsehir"},{"interfaces":[{"names":["i0"],"routing_table":{}}],"location":{"latitude":37.05944,"longitude":37.3825},"name":"Gaziantep"},{"interfaces":[{"names":["i0","i1"],"routing_table":{}}],"location":{"latitude":39.84528,"longitude":33.50639},"name":"Kirikkale"},{"interfaces":[{"names":["i0"],"routing_table":{}}],"location":{"latitude":36.71611,"longitude":37.115},"name":"Kilis"},{"interfaces":[{"names":["i0"],"routing_table":{}}],"name":"GEANT"},{"interfaces":[{"names":["i0"],"routing_table":{}}],"location":{"latitude":39.14583,"longitude":34.16389},"name":"Kirsehir"},{"interfaces":[{"names":["i0"],"routing_table":{}}],"location":{"latitude":40.59995,"longitude":33.6153},"name":"Cankiri"},{"interfaces":[{"names":["i0"],"routing_table":{}}],"location":{"latitude":41.37805,"longitude":33.77528},"name":"Kastamonu"},{"interfaces":[{"names":["i0"],"routing_table":{}}],"location":{"latitude":38.74525,"longitude":41.50693},"name":"Mus"},{"interfaces":[{"names":["i0"],"routing_table":{}}],"location":{"latitude":39.77667,"longitude":30.52056},"name":"Eskisehir"},{"interfaces":[{"names":["i0"],"routing_table":{}}],"location":{"latitude":40.76694,"longitude":29.91694},"name":"Kocaeli"},{"interfaces":[{"names":["i0"],"routing_table":{}}],"location":{"latitude":40.78056,"longitude":30.40333},"name":"Sakarya"},{"interfaces":[{"names":["i0"],"routing_table":{}}],"location":{"latitude":38.40115,"longitude":42.10784},"name":"Bitlis"},{"interfaces":[{"names":["i0"],"routing_table":{}}],"location":{"latitude":40.19167,"longitude":29.06111},"name":"Bursa"},{"interfaces":[{"names":["i0"],"routing_table":{}}],"location":{"latitude":40.73583,"longitude":31.60611},"name":"Bolu"},{"interfaces":[{"names":["i0"],"routing_table":{}}],"location":{"latitude":40.83889,"longitude":31.16389},"name":"Duzce"},{"interfaces":[{"names":["i0"],"routing_table":{}}],"location":{"latitude":41.45139,"longitude":31.79305},"name":"Zonguldak"},{"interfaces":[{"names":["i0"],"routing_table":{}}],"location":{"latitude":41.02083,"longitude":40.52194},"name":"Rize"},{"interfaces":[{"names":["i0"],"routing_table":{}}],"name":"S._Urfa"},{"interfaces":[{"names":["i0"],"routing_table":{}}],"name":"Internet"},{"interfaces":[{"names":["i0"],"routing_table":{}}],"name":"Internet2"},{"interfaces":[{"names":["i0"],"routing_table":{}}],"location":{"latitude":41.005,"longitude":39.72694},"name":"Trabzon"},{"interfaces":[{"names":["i0"],"routing_table":{}}],"location":{"latitude":39.92371,"longitude":44.045},"name":"Igdir"},{"interfaces":[{"names":["i0"],"routing_table":{}}],"location":{"latitude":38.61202,"longitude":27.42646},"name":"Manisa"},{"interfaces":[{"names":["i0"],"routing_table":{}}],"location":{"latitude":39.42417,"longitude":29.98333},"name":"Kutahya"},{"interfaces":[{"names":["i0","i1"],"routing_table":{}}],"location":{"latitude":39.75222,"longitude":39.49278},"name":"Erzincan"},{"interfaces":[{"names":["i0"],"routing_table":{}}],"location":{"latitude":39.74833,"longitude":37.01611},"name":"Sivas"},{"interfaces":[{"names":["i0","i1","i2","i3","i4","i5","i6","i7","i8","i9","i10","i11","i12"],"routing_table":{}}],"location":{"latitude":41.01384,"longitude":28.94966},"name":"Istanbul"},{"interfaces":[{"names":["i0","i1","i2","i3","i4","i5","i6","i7","i8","i9"],"routing_table":{}}],"location":{"latitude":38.41273,"longitude":27.13838},"name":"iZMiR"},{"interfaces":[{"names":["i0","i1","i2","i3","i4","i5","i6","i7","i8","i9","i10","i11","i12","i13","i14","i15","i16","i17","i18","i19","i20","i21","i22","i23","i24","i25","i26","i27","i28","i29","i30","i31","i32","i33","i34","i35","i36","i37","i38","i39","i40","i41","i42","i43","i44","i45","i46","i47","i48","i49","i50","i51","i52","i53","i54","i55","i56","i57"],"routing_table":{}}],"location":{"latitude":39.91987,"longitude":32.85427},"name":"Ankara"},{"interfaces":[{"names":["i0"],"routing_table":{}}],"location":{"latitude":41.73508,"longitude":27.22521},"name":"Kirklareli"},{"interfaces":[{"names":["i0"],"routing_table":{}}],"location":{"latitude":40.97801,"longitude":27.50852},"name":"Tekirdag"},{"interfaces":[{"names":["i0"],"routing_table":{}}],"location":{"latitude":41.67719,"longitude":26.55597},"name":"Edirne"},{"interfaces":[{"names":["i0"],"routing_table":{}}],"location":{"latitude":40.14556,"longitude":26.40639},"name":"Canakkale"},{"interfaces":[{"names":["i0"],"routing_table":{}}],"location":{"latitude":39.64917,"longitude":27.88611},"name":"Balikesin"}]}}
