{"network":{"links":[{"bandwidth":712000,"bidirectional":true,"from_interface":"i0","from_router":"Technical_Uni","latency":5,"to_interface":"i0","to_router":"IPP-BAS","weight":14},{"bandwidth":712000,"bidirectional":true,"from_interface":"i1","from_router":"Technical_Uni","latency":5,"to_interface":"i0","to_router":"Economy_Uni.","weight":14},{"bandwidth":1000000,"bidirectional":true,"from_interface":"i0","from_router":"None","latency":67,"to_interface":"i1","to_router":"IPP-BAS","weight":10},{"bandwidth":100000,"bidirectional":true,"from_interface":"i1","from_router":"None","latency":67,"to_interface":"i0","to_router":"Telecom._and_Post","weight":100},{"bandwidth":1000000,"bidirectional":true,"from_interface":"i2","from_router":"None","latency":67,"to_interface":"i0","to_router":"Civil_Engineering","weight":10},{"bandwidth":100000,"bidirectional":true,"from_interface":"i3","from_router":"None","latency":67,"to_interface":"i0","to_router":"Higher_Attestation_Commission","weight":100},{"bandwidth":712000,"bidirectional":true,"from_interface":"i0","from_router":"Todos_Kableshkov_Uni","latency":5,"to_interface":"i0","to_router":"Sofia_Uni.","weight":14},{"bandwidth":712000,"bidirectional":true,"from_interface":"i1","from_router":"Todos_Kableshkov_Uni","latency":5,"to_interface":"i2","to_router":"IPP-BAS","weight":14},{"bandwidth":1000000,"bidirectional":true,"from_interface":"i3","from_router":"IPP-BAS","latency":67,"to_interface":"i0","to_router":"Academy_of_Sciences","weight":10},{"bandwidth":100000,"bidirectional":true,"from_interface":"i4","from_router":"IPP-BAS","latency":67,"to_interface":"i0","to_router":"None2","weight":100},{"bandwidth":1000000,"bidirectional":true,"from_interface":"i5","from_router":"IPP-BAS","latency":224,"to_interface":"i0","to_router":"Plovdiv_Uni","weight":10},{"bandwidth":1000000,"bidirectional":true,"from_interface":"i6","from_router":"IPP-BAS","latency":224,"to_interface":"i0","to_router":"Pleven_University","weight":10},{"bandwidth":712000,"bidirectional":true,"from_interface":"i7","from_router":"IPP-BAS","latency":67,"to_interface":"i0","to_router":"GEANT","weight":14},{"bandwidth":712000,"bidirectional":true,"from_interface":"i8","from_router":"IPP-BAS","latency":67,"to_interface":"i0","to_router":"BG_Internet","weight":14},{"bandwidth":100000,"bidirectional":true,"from_interface":"i0","from_router":"South-West_Uni","latency":67,"to_interface":"i1","to_router":"None2","weight":100},{"bandwidth":100000,"bidirectional":true,"from_interface":"i0","from_router":"NMU","latency":67,"to_interface":"i0","to_router":"None3","weight":100},{"bandwidth":1000000,"bidirectional":true,"from_interface":"i0","from_router":"Vasil_Levski_Uni","latency":5,"to_interface":"i0","to_router":"Shumen_University","weight":10},{"bandwidth":1000000,"bidirectional":true,"from_interface":"i1","from_router":"Vasil_Levski_Uni","latency":172,"to_interface":"i0","to_router":"Ruse_Uni.","weight":10},{"bandwidth":1000000,"bidirectional":true,"from_interface":"i2","from_router":"Vasil_Levski_Uni","latency":139,"to_interface":"i0","to_router":"Uni_of_Economics","weight":10},{"bandwidth":1000000,"bidirectional":true,"from_interface":"i1","from_router":"Uni_of_Economics","latency":5,"to_interface":"i0","to_router":"Varna_Tech_Uni","weight":10},{"bandwidth":1000000,"bidirectional":true,"from_interface":"i2","from_router":"Uni_of_Economics","latency":5,"to_interface":"i0","to_router":"Naval_Academy","weight":10},{"bandwidth":1000000,"bidirectional":true,"from_interface":"i3","from_router":"Uni_of_Economics","latency":479,"to_interface":"i1","to_router":"Plovdiv_Uni","weight":10},{"bandwidth":100000,"bidirectional":true,"from_interface":"i1","from_router":"None3","latency":67,"to_interface":"i1","to_router":"Pleven_University","weight":100},{"bandwidth":1000000,"bidirectional":true,"from_interface":"i1","from_router":"Ruse_Uni.","latency":155,"to_interface":"i0","to_router":"Military_Uni","weight":10},{"bandwidth":100000,"bidirectional":true,"from_interface":"i0","from_router":"Academy_of_Economics","latency":67,"to_interface":"i0","to_router":"None4","weight":100},{"bandwidth":1000000,"bidirectional":true,"from_interface":"i0","from_router":"Technical_Uni.","latency":5,"to_interface":"i2","to_router":"Plovdiv_Uni","weight":10},{"bandwidth":1000000,"bidirectional":true,"from_interface":"i0","from_router":"Agriculture","latency":5,"to_interface":"i3","to_router":"Plovdiv_Uni","weight":10},{"bandwidth":1000000,"bidirectional":true,"from_interface":"i2","from_router":"Pleven_University","latency":155,"to_interface":"i1","to_router":"Military_Uni","weight":10},{"bandwidth":100000,"bidirectional":true,"from_interface":"i1","from_router":"None4","latency":67,"to_interface":"i2","to_router":"Military_Uni","weight":100},{"bandwidth":1000000,"bidirectional":true,"from_interface":"i0","from_router":"Veliko_Uni","latency":5,"to_interface":"i3","to_router":"Military_Uni","weight":10},{"bandwidth":1000000,"bidirectional":true,"from_interface":"i4","from_router":"Military_Uni","latency":60,"to_interface":"i0","to_router":"Gabrovo_Uni","weight":10},{"bandwidth":712000,"bidirectional":true,"from_interface":"i0","from_router":"Sofia_University","latency":5,"to_interface":"i0","to_router":"Medical_Uni_Sofia","weight":14},{"bandwidth":712000,"bidirectional":true,"from_interface":"i1","from_router":"Sofia_University","latency":5,"to_interface":"i1","to_router":"Economy_Uni.","weight":14},{"bandwidth":712000,"bidirectional":true,"from_interface":"i0","from_router":"Medical_Uni._Pharmacy","latency":5,"to_interface":"i1","to_router":"Sofia_Uni.","weight":14},{"bandwidth":712000,"bidirectional":true,"from_interface":"i0","from_router":"Medical_Uni_Public_Health","latency":5,"to_interface":"i2","to_router":"Sofia_Uni.","weight":14},{"bandwidth":712000,"bidirectional":true,"from_interface":"i0","from_router":"Min._Education","latency":5,"to_interface":"i3","to_router":"Sofia_Uni.","weight":14},{"bandwidth":712000,"bidirectional":true,"from_interface":"i4","from_router":"Sofia_Uni.","latency":5,"to_interface":"i1","to_router":"Medical_Uni_Sofia","weight":14},{"bandwidth":712000,"bidirectional":true,"from_interface":"i2","from_router":"Medical_Uni_Sofia","latency":5,"to_interface":"i0","to_router":"Medical_college_of_Sofia","weight":14}],"name":"Bren","routers":[{"interfaces":[{"names":["i0","i1"],"routing_table":{}}],"location":{"latitude":42.69751,"longitude":23.32415},"name":"Technical_Uni"},{"interfaces":[{"names":["i0","i1","i2","i3"],"routing_table":{}}],"name":"None"},{"interfaces":[{"names":["i0","i1"],"routing_table":{}}],"location":{"latitude":42.69751,"longitude":23.32415},"name":"Todos_Kableshkov_Uni"},{"interfaces":[{"names":["i0","i1","i2","i3","i4","i5","i6","i7","i8"],"routing_table":{}}],"location":{"latitude":42.69751,"longitude":23.32415},"name":"IPP-BAS"},{"interfaces":[{"names":["i0"],"routing_table":{}}],"location":{"latitude":42.69751,"longitude":23.32415},"name":"Telecom._and_Post"},{"interfaces":[{"names":["i0"],"routing_table":{}}],"location":{"latitude":42.01667,"longitude":23.1},"name":"South-West_Uni"},{"interfaces":[{"names":["i0"],"routing_table":{}}],"location":{"latitude":42.69751,"longitude":23.32415},"name":"Civil_Engineering"},{"interfaces":[{"names":["i0"],"routing_table":{}}],"location":{"latitude":42.69751,"longitude":23.32415},"name":"Higher_Attestation_Commission"},{"interfaces":[{"names":["i0"],"routing_table":{}}],"name":"Academy_of_Sciences"},{"interfaces":[{"names":["i0"],"routing_table":{}}],"name":"NMU"},{"interfaces":[{"names":["i0","i1","i2"],"routing_table":{}}],"location":{"latitude":43.27064,"longitude":26.92286},"name":"Vasil_Levski_Uni"},{"interfaces":[{"names":["i0","i1","i2","i3"],"routing_table":{}}],"location":{"latitude":43.21667,"longitude":27.91667},"name":"Uni_of_Economics"},{"interfaces":[{"names":["i0"],"routing_table":{}}],"location":{"latitude":43.21667,"longitude":27.91667},"name":"Varna_Tech_Uni"},{"interfaces":[{"names":["i0"],"routing_table":{}}],"location":{"latitude":43.21667,"longitude":27.91667},"name":"Naval_Academy"},{"interfaces":[{"names":["i0","i1"],"routing_table":{}}],"name":"None2"},{"interfaces":[{"names":["i0","i1"],"routing_table":{}}],"name":"None3"},{"interfaces":[{"names":["i0"],"routing_table":{}}],"location":{"latitude":43.27064,"longitude":26.92286},"name":"Shumen_University"},{"interfaces":[{"names":["i0","i1"],"routing_table":{}}],"location":{"latitude":43.85639,"longitude":25.97083},"name":"Ruse_Uni."},{"interfaces":[{"names":["i0"],"routing_table":{}}],"location":{"latitude":43.62306,"longitude":25.35389},"name":"Academy_of_Economics"},{"interfaces":[{"names":["i0"],"routing_table":{}}],"location":{"latitude":42.15,"longitude":24.75},"name":"Technical_Uni."},{"interfaces":[{"names":["i0"],"routing_table":{}}],"location":{"latitude":42.15,"longitude":24.75},"name":"Agriculture"},{"interfaces":[{"names":["i0","i1","i2","i3"],"routing_table":{}}],"location":{"latitude":42.15,"longitude":24.75},"name":"Plovdiv_Uni"},{"interfaces":[{"names":["i0","i1","i2"],"routing_table":{}}],"location":{"latitude":43.41667,"longitude":24.61667},"name":"Pleven_University"},{"interfaces":[{"names":["i0","i1"],"routing_table":{}}],"name":"None4"},{"interfaces":[{"names":["i0"],"routing_table":{}}],"location":{"latitude":43.08124,"longitude":25.62904},"name":"Veliko_Uni"},{"interfaces":[{"names":["i0","i1","i2","i3","i4"],"routing_table":{}}],"location":{"latitude":43.08124,"longitude":25.62904},"name":"Military_Uni"},{"interfaces":[{"names":["i0"],"routing_table":{}}],"location":{"latitude":42.87472,"longitude":25.33417},"name":"Gabrovo_Uni"},{"interfaces":[{"names":["i0","i1"],"routing_table":{}}],"location":{"latitude":42.69751,"longitude":23.32415},"name":"Sofia_University"},{"interfaces":[{"names":["i0","i1"],"routing_table":{}}],"location":{"latitude":42.69751,"longitude":23.32415},"name":"Economy_Uni."},{"interfaces":[{"names":["i0"],"routing_table":{}}],"name":"GEANT"},{"interfaces":[{"names":["i0"],"routing_table":{}}],"name":"BG_Internet"},{"interfaces":[{"names":["i0"],"routing_table":{}}],"location":{"latitude":42.69751,"longitude":23.32415},"name":"Medical_Uni._Pharmacy"},{"interfaces":[{"names":["i0"],"routing_table":{}}],"location":{"latitude":42.69751,"longitude":23.32415},"name":"Medical_Uni_Public_Health"},{"interfaces":[{"names":["i0"],"routing_table":{}}],"location":{"latitude":42.69751,"longitude":23.32415},"name":"Min._Education"},{"interfaces":[{"names":["i0","i1","i2","i3","i4"],"routing_table":{}}],"location":{"latitude":42.69751,"longitude":23.32415},"name":"Sofia_Uni."},{"interfaces":[{"names":["i0","i1","i2"],"routing_table":{}}],"location":{"latitude":42.69751,"longitude":23.32415},"name":"Medical_Uni_Sofia"},{"interfaces":[{"names":["i0"],"routing_table":{}}],"location":{"latitude":42.69751,"longitude":23.32415},"name":"Medical_college_of_Sofia"}]}}
