{"network":{"links":[{"bandwidth":1000000,"bidirectional":true,"from_interface":"i0","from_router":"Johannesburg","latency":93,"to_interface":"i0","to_router":"Pretoria","weight":10},{"bandwidth":1000000,"bidirectional":true,"from_interface":"i1","from_router":"Johannesburg","latency":626,"to_interface":"i0","to_router":"Bloemfontein","weight":10},{"bandwidth":1000000,"bidirectional":true,"from_interface":"i1","from_router":"Pretoria","latency":895,"to_interface":"i0","to_router":"Durban","weight":10},{"bandwidth":1000000,"bidirectional":true,"from_interface":"i1","from_router":"Durban","latency":769,"to_interface":"i0","to_router":"East_London","weight":10},{"bandwidth":1000000,"bidirectional":true,"from_interface":"i1","from_router":"Bloemfontein","latency":1518,"to_interface":"i0","to_router":"Cape_Town","weight":10},{"bandwidth":1000000,"bidirectional":true,"from_interface":"i1","from_router":"East_London","latency":405,"to_interface":"i0","to_router":"Port_Elizabeth","weight":10},{"bandwidth":1000000,"bidirectional":true,"from_interface":"i1","from_router":"Port_Elizabeth","latency":1105,"to_interface":"i1","to_router":"Cape_Town","weight":10}],"name":"Sanren","routers":[{"interfaces":[{"names":["i0","i1"],"routing_table":{}}],"location":{"latitude":-26.20227,"longitude":28.04363},"name":"Johannesburg"},{"interfaces":[{"names":["i0","i1"],"routing_table":{}}],"location":{"latitude":-25.74486,"longitude":28.18783},"name":"Pretoria"},{"interfaces":[{"names":["i0","i1"],"routing_table":{}}],"location":{"latitude":-29.85,"longitude":31.01667},"name":"Durban"},{"interfaces":[{"names":["i0","i1"],"routing_table":{}}],"location":{"latitude":-29.13333,"longitude":26.2},"name":"Bloemfontein"},{"interfaces":[{"names":["i0","i1"],"routing_table":{}}],"location":{"latitude":-33.01529,"longitude":27.91162},"name":"East_London"},{"interfaces":[{"names":["i0","i1"],"routing_table":{}}],"location":{"latitude":-33.96667,"longitude":25.58333},"name":"Port_Elizabeth"},{"interfaces":[{"names":["i0","i1"],"routing_table":{}}],"location":{"latitude":-33.91667,"longitude":18.41667},"name":"Cape_Town"}]}}
