{"network":{"links":[{"bandwidth":1000000,"bidirectional":true,"from_interface":"i0","from_router":"Jakarta","latency":5446,"to_interface":"i0","to_router":"Hong_Kong","weight":10},{"bandwidth":1000000,"bidirectional":true,"from_interface":"i0","from_router":"Perth","latency":6506,"to_interface":"i0","to_router":"Singapore","weight":10},{"bandwidth":1000000,"bidirectional":true,"from_interface":"i1","from_router":"Perth","latency":5489,"to_interface":"i0","to_router":"Sydney","weight":10},{"bandwidth":1000000,"bidirectional":true,"from_interface":"i2","from_router":"Perth","latency":10049,"to_interface":"i1","to_router":"Hong_Kong","weight":10},{"bandwidth":1000000,"bidirectional":true,"from_interface":"i1","from_router":"Singapore","latency":532,"to_interface":"i0","to_router":"Kuala_Lumpur","weight":10},{"bandwidth":1000000,"bidirectional":true,"from_interface":"i2","from_router":"Singapore","latency":10495,"to_interface":"i1","to_router":"Sydney","weight":10},{"bandwidth":1000000,"bidirectional":true,"from_interface":"i3","from_router":"Singapore","latency":4486,"to_interface":"i0","to_router":"London","weight":10},{"bandwidth":1000000,"bidirectional":true,"from_interface":"i4","from_router":"Singapore","latency":2391,"to_interface":"i0","to_router":"Bangkok","weight":10},{"bandwidth":1000000,"bidirectional":true,"from_interface":"i5","from_router":"Singapore","latency":4848,"to_interface":"i0","to_router":"Chenai","weight":10},{"bandwidth":1000000,"bidirectional":true,"from_interface":"i6","from_router":"Singapore","latency":6516,"to_interface":"i0","to_router":"Mumbai2","weight":10},{"bandwidth":1000000,"bidirectional":true,"from_interface":"i0","from_router":"San_Jose","latency":4486,"to_interface":"i0","to_router":"Tokyo","weight":10},{"bandwidth":1000000,"bidirectional":true,"from_interface":"i1","from_router":"San_Jose","latency":4486,"to_interface":"i2","to_router":"Sydney","weight":10},{"bandwidth":1000000,"bidirectional":true,"from_interface":"i2","from_router":"San_Jose","latency":4486,"to_interface":"i2","to_router":"Hong_Kong","weight":10},{"bandwidth":1000000,"bidirectional":true,"from_interface":"i0","from_router":"Los_Angeles","latency":4486,"to_interface":"i0","to_router":"Auckland","weight":10},{"bandwidth":1000000,"bidirectional":true,"from_interface":"i1","from_router":"Los_Angeles","latency":4486,"to_interface":"i1","to_router":"Tokyo","weight":10},{"bandwidth":1000000,"bidirectional":true,"from_interface":"i2","from_router":"Los_Angeles","latency":4486,"to_interface":"i3","to_router":"Sydney","weight":10},{"bandwidth":1000000,"bidirectional":true,"from_interface":"i3","from_router":"Los_Angeles","latency":4486,"to_interface":"i3","to_router":"Hong_Kong","weight":10},{"bandwidth":1000000,"bidirectional":true,"from_interface":"i4","from_router":"Sydney","latency":3596,"to_interface":"i1","to_router":"Auckland","weight":10},{"bandwidth":1000000,"bidirectional":true,"from_interface":"i1","from_router":"London","latency":4486,"to_interface":"i0","to_router":"Mumbai","weight":10},{"bandwidth":1000000,"bidirectional":true,"from_interface":"i2","from_router":"London","latency":4486,"to_interface":"i4","to_router":"Hong_Kong","weight":10},{"bandwidth":1000000,"bidirectional":true,"from_interface":"i0","from_router":"Palo_Alto","latency":4486,"to_interface":"i5","to_router":"Hong_Kong","weight":10},{"bandwidth":1000000,"bidirectional":true,"from_interface":"i0","from_router":"New_Delhi","latency":1934,"to_interface":"i1","to_router":"Mumbai","weight":10},{"bandwidth":1000000,"bidirectional":true,"from_interface":"i2","from_router":"Mumbai","latency":7167,"to_interface":"i6","to_router":"Hong_Kong","weight":10},{"bandwidth":1000000,"bidirectional":true,"from_interface":"i0","from_router":"Seoul","latency":1911,"to_interface":"i2","to_router":"Tokyo","weight":10},{"bandwidth":1000000,"bidirectional":true,"from_interface":"i1","from_router":"Seoul","latency":3496,"to_interface":"i7","to_router":"Hong_Kong","weight":10},{"bandwidth":1000000,"bidirectional":true,"from_interface":"i3","from_router":"Tokyo","latency":3481,"to_interface":"i0","to_router":"Taipei","weight":10},{"bandwidth":1000000,"bidirectional":true,"from_interface":"i4","from_router":"Tokyo","latency":4785,"to_interface":"i8","to_router":"Hong_Kong","weight":10},{"bandwidth":1000000,"bidirectional":true,"from_interface":"i5","from_router":"Tokyo","latency":4971,"to_interface":"i0","to_router":"Manila","weight":10},{"bandwidth":1000000,"bidirectional":true,"from_interface":"i1","from_router":"Taipei","latency":1355,"to_interface":"i9","to_router":"Hong_Kong","weight":10},{"bandwidth":1000000,"bidirectional":true,"from_interface":"i10","from_router":"Hong_Kong","latency":1864,"to_interface":"i1","to_router":"Manila","weight":10},{"bandwidth":1000000,"bidirectional":true,"from_interface":"i11","from_router":"Hong_Kong","latency":2877,"to_interface":"i1","to_router":"Bangkok","weight":10}],"name":"BtAsiaPac","routers":[{"interfaces":[{"names":["i0"],"routing_table":{}}],"location":{"latitude":-6.21462,"longitude":106.84513},"name":"Jakarta"},{"interfaces":[{"names":["i0","i1","i2"],"routing_table":{}}],"location":{"latitude":-31.93333,"longitude":115.83333},"name":"Perth"},{"interfaces":[{"names":["i0","i1","i2","i3","i4","i5","i6"],"routing_table":{}}],"location":{"latitude":1.28967,"longitude":103.85007},"name":"Singapore"},{"interfaces":[{"names":["i0"],"routing_table":{}}],"location":{"latitude":3.1412,"longitude":101.68653},"name":"Kuala_Lumpur"},{"interfaces":[{"names":["i0","i1","i2"],"routing_table":{}}],"name":"San_Jose"},{"interfaces":[{"names":["i0","i1","i2","i3"],"routing_table":{}}],"name":"Los_Angeles"},{"interfaces":[{"names":["i0","i1","i2","i3","i4"],"routing_table":{}}],"location":{"latitude":-33.86785,"longitude":151.20732},"name":"Sydney"},{"interfaces":[{"names":["i0","i1"],"routing_table":{}}],"location":{"latitude":-36.86667,"longitude":174.76667},"name":"Auckland"},{"interfaces":[{"names":["i0","i1","i2"],"routing_table":{}}],"name":"London"},{"interfaces":[{"names":["i0"],"routing_table":{}}],"name":"Palo_Alto"},{"interfaces":[{"names":["i0"],"routing_table":{}}],"location":{"latitude":28.63576,"longitude":77.22445},"name":"New_Delhi"},{"interfaces":[{"names":["i0","i1","i2"],"routing_table":{}}],"location":{"latitude":19.01441,"longitude":72.84794},"name":"Mumbai"},{"interfaces":[{"names":["i0","i1"],"routing_table":{}}],"location":{"latitude":37.56826,"longitude":126.97783},"name":"Seoul"},{"interfaces":[{"names":["i0","i1","i2","i3","i4","i5"],"routing_table":{}}],"location":{"latitude":35.61488,"longitude":139.5813},"name":"Tokyo"},{"interfaces":[{"names":["i0","i1"],"routing_table":{}}],"location":{"latitude":25.04776,"longitude":121.53185},"name":"Taipei"},{"interfaces":[{"names":["i0","i1","i2","i3","i4","i5","i6","i7","i8","i9","i10","i11"],"routing_table":{}}],"location":{"latitude":22.28552,"longitude":114.15769},"name":"Hong_Kong"},{"interfaces":[{"names":["i0","i1"],"routing_table":{}}],"location":{"latitude":14.6042,"longitude":120.9822},"name":"Manila"},{"interfaces":[{"names":["i0","i1"],"routing_table":{}}],"location":{"latitude":13.75,"longitude":100.51667},"name":"Bangkok"},{"interfaces":[{"names":["i0"],"routing_table":{}}],"location":{"latitude":13.08784,"longitude":80.27847},"name":"Chenai"},{"interfaces":[{"names":["i0"],"routing_table":{}}],"location":{"latitude":19.01441,"longitude":72.84794},"name":"Mumbai2"}]}}
