{"network":{"links":[{"bandwidth":1000000,"bidirectional":true,"from_interface":"i0","from_router":"New_York","latency":2327,"to_interface":"i0","to_router":"Unknown","weight":10},{"bandwidth":1000000,"bidirectional":true,"from_interface":"i1","from_router":"New_York","latency":8522,"to_interface":"i0","to_router":"Dublin","weight":10},{"bandwidth":1000000,"bidirectional":true,"from_interface":"i1","from_router":"Unknown","latency":2327,"to_interface":"i0","to_router":"Chicago","weight":10},{"bandwidth":1000000,"bidirectional":true,"from_interface":"i2","from_router":"Unknown","latency":2327,"to_interface":"i0","to_router":"None","weight":10},{"bandwidth":1000000,"bidirectional":true,"from_interface":"i3","from_router":"Unknown","latency":2327,"to_interface":"i0","to_router":"Toronto","weight":10},{"bandwidth":1000000,"bidirectional":true,"from_interface":"i4","from_router":"Unknown","latency":2327,"to_interface":"i0","to_router":"Washington_DC","weight":10},{"bandwidth":1000000,"bidirectional":true,"from_interface":"i0","from_router":"Montreal","latency":678,"to_interface":"i0","to_router":"Boston","weight":10},{"bandwidth":1000000,"bidirectional":true,"from_interface":"i1","from_router":"Montreal","latency":7932,"to_interface":"i1","to_router":"Dublin","weight":10},{"bandwidth":1000000,"bidirectional":true,"from_interface":"i0","from_router":"London","latency":577,"to_interface":"i0","to_router":"Paris","weight":10},{"bandwidth":1000000,"bidirectional":true,"from_interface":"i1","from_router":"London","latency":538,"to_interface":"i0","to_router":"Brussels","weight":10},{"bandwidth":1000000,"bidirectional":true,"from_interface":"i2","from_router":"London","latency":440,"to_interface":"i0","to_router":"Manchester","weight":10},{"bandwidth":1000000,"bidirectional":true,"from_interface":"i3","from_router":"London","latency":804,"to_interface":"i0","to_router":"Dusseldorf","weight":10},{"bandwidth":1000000,"bidirectional":true,"from_interface":"i4","from_router":"London","latency":776,"to_interface":"i2","to_router":"Dublin","weight":10},{"bandwidth":1000000,"bidirectional":true,"from_interface":"i5","from_router":"London","latency":599,"to_interface":"i0","to_router":"Amsterdam","weight":10},{"bandwidth":1000000,"bidirectional":true,"from_interface":"i1","from_router":"Amsterdam","latency":611,"to_interface":"i0","to_router":"Frankfurt","weight":10},{"bandwidth":1000000,"bidirectional":true,"from_interface":"i2","from_router":"Amsterdam","latency":826,"to_interface":"i1","to_router":"Manchester","weight":10},{"bandwidth":1000000,"bidirectional":true,"from_interface":"i3","from_router":"Amsterdam","latency":308,"to_interface":"i1","to_router":"Dusseldorf","weight":10},{"bandwidth":1000000,"bidirectional":true,"from_interface":"i4","from_router":"Amsterdam","latency":226,"to_interface":"i0","to_router":"Antwerp","weight":10},{"bandwidth":1000000,"bidirectional":true,"from_interface":"i5","from_router":"Amsterdam","latency":1524,"to_interface":"i0","to_router":"Oslo","weight":10},{"bandwidth":1000000,"bidirectional":true,"from_interface":"i6","from_router":"Amsterdam","latency":1038,"to_interface":"i0","to_router":"Copenhagen","weight":10},{"bandwidth":1000000,"bidirectional":true,"from_interface":"i3","from_router":"Dublin","latency":450,"to_interface":"i2","to_router":"Manchester","weight":10},{"bandwidth":1000000,"bidirectional":true,"from_interface":"i2","from_router":"Dusseldorf","latency":308,"to_interface":"i1","to_router":"Frankfurt","weight":10},{"bandwidth":1000000,"bidirectional":true,"from_interface":"i3","from_router":"Dusseldorf","latency":1645,"to_interface":"i0","to_router":"Warsaw","weight":10},{"bandwidth":1000000,"bidirectional":true,"from_interface":"i4","from_router":"Dusseldorf","latency":569,"to_interface":"i0","to_router":"Hamburg","weight":10},{"bandwidth":1000000,"bidirectional":true,"from_interface":"i5","from_router":"Dusseldorf","latency":1916,"to_interface":"i0","to_router":"Stockholm","weight":10},{"bandwidth":1000000,"bidirectional":true,"from_interface":"i1","from_router":"Antwerp","latency":73,"to_interface":"i1","to_router":"Brussels","weight":10},{"bandwidth":1000000,"bidirectional":true,"from_interface":"i1","from_router":"None","latency":2327,"to_interface":"i0","to_router":"None2","weight":10},{"bandwidth":1000000,"bidirectional":true,"from_interface":"i2","from_router":"None","latency":2327,"to_interface":"i0","to_router":"None3","weight":10},{"bandwidth":1000000,"bidirectional":true,"from_interface":"i1","from_router":"None2","latency":2327,"to_interface":"i0","to_router":"Denver","weight":10},{"bandwidth":1000000,"bidirectional":true,"from_interface":"i2","from_router":"None2","latency":2327,"to_interface":"i0","to_router":"San_Jose","weight":10},{"bandwidth":1000000,"bidirectional":true,"from_interface":"i1","from_router":"None3","latency":2327,"to_interface":"i1","to_router":"Denver","weight":10},{"bandwidth":1000000,"bidirectional":true,"from_interface":"i2","from_router":"None3","latency":2327,"to_interface":"i1","to_router":"Chicago","weight":10},{"bandwidth":1000000,"bidirectional":true,"from_interface":"i0","from_router":"Athens","latency":1271,"to_interface":"i0","to_router":"Catania","weight":10},{"bandwidth":1000000,"bidirectional":true,"from_interface":"i0","from_router":"Bucharest","latency":2426,"to_interface":"i2","to_router":"Frankfurt","weight":10},{"bandwidth":1000000,"bidirectional":true,"from_interface":"i1","from_router":"Bucharest","latency":1431,"to_interface":"i0","to_router":"Vienna","weight":10},{"bandwidth":1000000,"bidirectional":true,"from_interface":"i1","from_router":"Vienna","latency":96,"to_interface":"i0","to_router":"Bratislava","weight":10},{"bandwidth":1000000,"bidirectional":true,"from_interface":"i2","from_router":"Vienna","latency":597,"to_interface":"i0","to_router":"Munich","weight":10},{"bandwidth":1000000,"bidirectional":true,"from_interface":"i3","from_router":"Vienna","latency":1000,"to_interface":"i3","to_router":"Frankfurt","weight":10},{"bandwidth":1000000,"bidirectional":true,"from_interface":"i4","from_router":"Vienna","latency":2327,"to_interface":"i0","to_router":"None4","weight":10},{"bandwidth":1000000,"bidirectional":true,"from_interface":"i1","from_router":"Bratislava","latency":489,"to_interface":"i0","to_router":"Prague","weight":10},{"bandwidth":1000000,"bidirectional":true,"from_interface":"i1","from_router":"Prague","latency":866,"to_interface":"i1","to_router":"Warsaw","weight":10},{"bandwidth":1000000,"bidirectional":true,"from_interface":"i2","from_router":"Prague","latency":686,"to_interface":"i4","to_router":"Frankfurt","weight":10},{"bandwidth":1000000,"bidirectional":true,"from_interface":"i2","from_router":"Warsaw","latency":1486,"to_interface":"i5","to_router":"Frankfurt","weight":10},{"bandwidth":1000000,"bidirectional":true,"from_interface":"i0","from_router":"Cagliari","latency":1108,"to_interface":"i0","to_router":"Turin","weight":10},{"bandwidth":1000000,"bidirectional":true,"from_interface":"i1","from_router":"Cagliari","latency":690,"to_interface":"i0","to_router":"Rome","weight":10},{"bandwidth":1000000,"bidirectional":true,"from_interface":"i1","from_router":"Rome","latency":1976,"to_interface":"i0","to_router":"???","weight":10},{"bandwidth":1000000,"bidirectional":true,"from_interface":"i2","from_router":"Rome","latency":898,"to_interface":"i1","to_router":"Catania","weight":10},{"bandwidth":1000000,"bidirectional":true,"from_interface":"i1","from_router":"???","latency":1550,"to_interface":"i1","to_router":"Turin","weight":10},{"bandwidth":1000000,"bidirectional":true,"from_interface":"i2","from_router":"Catania","latency":1690,"to_interface":"i0","to_router":"Milan","weight":10},{"bandwidth":1000000,"bidirectional":true,"from_interface":"i0","from_router":"Madrid","latency":844,"to_interface":"i0","to_router":"Barcelona","weight":10},{"bandwidth":1000000,"bidirectional":true,"from_interface":"i1","from_router":"Madrid","latency":1757,"to_interface":"i1","to_router":"Paris","weight":10},{"bandwidth":1000000,"bidirectional":true,"from_interface":"i0","from_router":"Singapore","latency":17643,"to_interface":"i0","to_router":"Marseille","weight":10},{"bandwidth":1000000,"bidirectional":true,"from_interface":"i1","from_router":"Singapore","latency":22737,"to_interface":"i1","to_router":"San_Jose","weight":10},{"bandwidth":1000000,"bidirectional":true,"from_interface":"i2","from_router":"Singapore","latency":4313,"to_interface":"i0","to_router":"Hong_Kong","weight":10},{"bandwidth":1000000,"bidirectional":true,"from_interface":"i1","from_router":"Hamburg","latency":485,"to_interface":"i1","to_router":"Copenhagen","weight":10},{"bandwidth":1000000,"bidirectional":true,"from_interface":"i0","from_router":"Sofia","latency":2327,"to_interface":"i1","to_router":"None4","weight":10},{"bandwidth":1000000,"bidirectional":true,"from_interface":"i1","from_router":"Oslo","latency":809,"to_interface":"i2","to_router":"Copenhagen","weight":10},{"bandwidth":1000000,"bidirectional":true,"from_interface":"i2","from_router":"Oslo","latency":698,"to_interface":"i1","to_router":"Stockholm","weight":10},{"bandwidth":1000000,"bidirectional":true,"from_interface":"i3","from_router":"Copenhagen","latency":874,"to_interface":"i2","to_router":"Stockholm","weight":10},{"bandwidth":1000000,"bidirectional":true,"from_interface":"i0","from_router":"Palo_Alto","latency":4956,"to_interface":"i2","to_router":"Chicago","weight":10},{"bandwidth":1000000,"bidirectional":true,"from_interface":"i1","from_router":"Hong_Kong","latency":18600,"to_interface":"i2","to_router":"San_Jose","weight":10},{"bandwidth":1000000,"bidirectional":true,"from_interface":"i2","from_router":"Hong_Kong","latency":19411,"to_interface":"i0","to_router":"Los_Angeles","weight":10},{"bandwidth":1000000,"bidirectional":true,"from_interface":"i2","from_router":"None4","latency":2327,"to_interface":"i6","to_router":"Frankfurt","weight":10},{"bandwidth":1000000,"bidirectional":true,"from_interface":"i1","from_router":"Munich","latency":512,"to_interface":"i7","to_router":"Frankfurt","weight":10},{"bandwidth":1000000,"bidirectional":true,"from_interface":"i2","from_router":"Munich","latency":510,"to_interface":"i0","to_router":"Basel","weight":10},{"bandwidth":1000000,"bidirectional":true,"from_interface":"i8","from_router":"Frankfurt","latency":495,"to_interface":"i1","to_router":"Basel","weight":10},{"bandwidth":1000000,"bidirectional":true,"from_interface":"i9","from_router":"Frankfurt","latency":868,"to_interface":"i1","to_router":"Milan","weight":10},{"bandwidth":1000000,"bidirectional":true,"from_interface":"i10","from_router":"Frankfurt","latency":801,"to_interface":"i2","to_router":"Paris","weight":10},{"bandwidth":1000000,"bidirectional":true,"from_interface":"i1","from_router":"Marseille","latency":646,"to_interface":"i2","to_router":"Milan","weight":10},{"bandwidth":1000000,"bidirectional":true,"from_interface":"i2","from_router":"Marseille","latency":451,"to_interface":"i2","to_router":"Turin","weight":10},{"bandwidth":1000000,"bidirectional":true,"from_interface":"i3","from_router":"Marseille","latency":572,"to_interface":"i1","to_router":"Barcelona","weight":10},{"bandwidth":1000000,"bidirectional":true,"from_interface":"i4","from_router":"Marseille","latency":1105,"to_interface":"i3","to_router":"Paris","weight":10},{"bandwidth":1000000,"bidirectional":true,"from_interface":"i4","from_router":"Paris","latency":445,"to_interface":"i2","to_router":"Brussels","weight":10},{"bandwidth":1000000,"bidirectional":true,"from_interface":"i5","from_router":"Paris","latency":695,"to_interface":"i2","to_router":"Basel","weight":10},{"bandwidth":1000000,"bidirectional":true,"from_interface":"i6","from_router":"Paris","latency":977,"to_interface":"i3","to_router":"Turin","weight":10},{"bandwidth":1000000,"bidirectional":true,"from_interface":"i3","from_router":"Basel","latency":129,"to_interface":"i0","to_router":"Zurich","weight":10},{"bandwidth":1000000,"bidirectional":true,"from_interface":"i1","from_router":"Zurich","latency":366,"to_interface":"i3","to_router":"Milan","weight":10},{"bandwidth":1000000,"bidirectional":true,"from_interface":"i4","from_router":"Milan","latency":213,"to_interface":"i4","to_router":"Turin","weight":10},{"bandwidth":1000000,"bidirectional":true,"from_interface":"i0","from_router":"Miami","latency":1627,"to_interface":"i0","to_router":"Atlanta","weight":10},{"bandwidth":1000000,"bidirectional":true,"from_interface":"i1","from_router":"Miami","latency":2484,"to_interface":"i1","to_router":"Washington_DC","weight":10},{"bandwidth":1000000,"bidirectional":true,"from_interface":"i1","from_router":"Toronto","latency":5535,"to_interface":"i0","to_router":"Seattle","weight":10},{"bandwidth":1000000,"bidirectional":true,"from_interface":"i2","from_router":"Toronto","latency":1174,"to_interface":"i3","to_router":"Chicago","weight":10},{"bandwidth":1000000,"bidirectional":true,"from_interface":"i1","from_router":"Seattle","latency":1907,"to_interface":"i3","to_router":"San_Jose","weight":10},{"bandwidth":1000000,"bidirectional":true,"from_interface":"i4","from_router":"San_Jose","latency":824,"to_interface":"i1","to_router":"Los_Angeles","weight":10},{"bandwidth":1000000,"bidirectional":true,"from_interface":"i2","from_router":"Los_Angeles","latency":3320,"to_interface":"i0","to_router":"Dallas","weight":10},{"bandwidth":1000000,"bidirectional":true,"from_interface":"i4","from_router":"Chicago","latency":2155,"to_interface":"i1","to_router":"Dallas","weight":10},{"bandwidth":1000000,"bidirectional":true,"from_interface":"i5","from_router":"Chicago","latency":1597,"to_interface":"i2","to_router":"Washington_DC","weight":10},{"bandwidth":1000000,"bidirectional":true,"from_interface":"i2","from_router":"Dallas","latency":1935,"to_interface":"i1","to_router":"Atlanta","weight":10},{"bandwidth":1000000,"bidirectional":true,"from_interface":"i2","from_router":"Atlanta","latency":1457,"to_interface":"i3","to_router":"Washington_DC","weight":10}],"name":"Tinet","routers":[{"interfaces":[{"names":["i0","i1"],"routing_table":{}}],"location":{"latitude":40.71427,"longitude":-74.00597},"name":"New_York"},{"interfaces":[{"names":["i0","i1","i2","i3","i4"],"routing_table":{}}],"name":"Unknown"},{"interfaces":[{"names":["i0","i1"],"routing_table":{}}],"location":{"latitude":45.50884,"longitude":-73.58781},"name":"Montreal"},{"interfaces":[{"names":["i0"],"routing_table":{}}],"location":{"latitude":42.35843,"longitude":-71.05977},"name":"Boston"},{"interfaces":[{"names":["i0","i1","i2","i3","i4","i5"],"routing_table":{}}],"location":{"latitude":51.50853,"longitude":-0.12574},"name":"London"},{"interfaces":[{"names":["i0","i1","i2","i3","i4","i5","i6"],"routing_table":{}}],"location":{"latitude":52.37403,"longitude":4.88969},"name":"Amsterdam"},{"interfaces":[{"names":["i0","i1","i2","i3"],"routing_table":{}}],"location":{"latitude":53.34399,"longitude":-6.26719},"name":"Dublin"},{"interfaces":[{"names":["i0","i1","i2"],"routing_table":{}}],"location":{"latitude":53.48095,"longitude":-2.23743},"name":"Manchester"},{"interfaces":[{"names":["i0","i1","i2","i3","i4","i5"],"routing_table":{}}],"location":{"latitude":51.22172,"longitude":6.77616},"name":"Dusseldorf"},{"interfaces":[{"names":["i0","i1"],"routing_table":{}}],"location":{"latitude":51.21667,"longitude":4.41667},"name":"Antwerp"},{"interfaces":[{"names":["i0","i1","i2"],"routing_table":{}}],"name":"None"},{"interfaces":[{"names":["i0","i1","i2"],"routing_table":{}}],"name":"None2"},{"interfaces":[{"names":["i0","i1","i2"],"routing_table":{}}],"name":"None3"},{"interfaces":[{"names":["i0"],"routing_table":{}}],"location":{"latitude":37.97945,"longitude":23.71622},"name":"Athens"},{"interfaces":[{"names":["i0","i1"],"routing_table":{}}],"location":{"latitude":44.43225,"longitude":26.10626},"name":"Bucharest"},{"interfaces":[{"names":["i0","i1","i2","i3","i4"],"routing_table":{}}],"location":{"latitude":48.20849,"longitude":16.37208},"name":"Vienna"},{"interfaces":[{"names":["i0","i1"],"routing_table":{}}],"location":{"latitude":48.14816,"longitude":17.10674},"name":"Bratislava"},{"interfaces":[{"names":["i0","i1","i2"],"routing_table":{}}],"location":{"latitude":50.08804,"longitude":14.42076},"name":"Prague"},{"interfaces":[{"names":["i0","i1","i2"],"routing_table":{}}],"location":{"latitude":52.22977,"longitude":21.01178},"name":"Warsaw"},{"interfaces":[{"names":["i0","i1"],"routing_table":{}}],"location":{"latitude":39.20738,"longitude":9.13462},"name":"Cagliari"},{"interfaces":[{"names":["i0","i1","i2"],"routing_table":{}}],"location":{"latitude":41.89474,"longitude":12.4839},"name":"Rome"},{"interfaces":[{"names":["i0","i1"],"routing_table":{}}],"location":{"latitude":52.52437,"longitude":13.41053},"name":"???"},{"interfaces":[{"names":["i0","i1","i2"],"routing_table":{}}],"location":{"latitude":37.50213,"longitude":15.08719},"name":"Catania"},{"interfaces":[{"names":["i0","i1"],"routing_table":{}}],"location":{"latitude":40.4165,"longitude":-3.70256},"name":"Madrid"},{"interfaces":[{"names":["i0","i1","i2"],"routing_table":{}}],"location":{"latitude":1.28967,"longitude":103.85007},"name":"Singapore"},{"interfaces":[{"names":["i0","i1"],"routing_table":{}}],"location":{"latitude":53.55,"longitude":10.0},"name":"Hamburg"},{"interfaces":[{"names":["i0"],"routing_table":{}}],"location":{"latitude":42.69751,"longitude":23.32415},"name":"Sofia"},{"interfaces":[{"names":["i0","i1","i2"],"routing_table":{}}],"location":{"latitude":59.91273,"longitude":10.74609},"name":"Oslo"},{"interfaces":[{"names":["i0","i1","i2","i3"],"routing_table":{}}],"location":{"latitude":55.67594,"longitude":12.56553},"name":"Copenhagen"},{"interfaces":[{"names":["i0"],"routing_table":{}}],"location":{"latitude":37.44188,"longitude":-122.14302},"name":"Palo_Alto"},{"interfaces":[{"names":["i0","i1","i2"],"routing_table":{}}],"location":{"latitude":59.33258,"longitude":18.0649},"name":"Stockholm"},{"interfaces":[{"names":["i0","i1","i2"],"routing_table":{}}],"location":{"latitude":22.28552,"longitude":114.15769},"name":"Hong_Kong"},{"interfaces":[{"names":["i0","i1","i2"],"routing_table":{}}],"name":"None4"},{"interfaces":[{"names":["i0","i1","i2"],"routing_table":{}}],"location":{"latitude":48.13743,"longitude":11.57549},"name":"Munich"},{"interfaces":[{"names":["i0","i1","i2","i3","i4","i5","i6","i7","i8","i9","i10"],"routing_table":{}}],"location":{"latitude":50.11667,"longitude":8.68333},"name":"Frankfurt"},{"interfaces":[{"names":["i0","i1","i2","i3","i4"],"routing_table":{}}],"location":{"latitude":43.3,"longitude":5.4},"name":"Marseille"},{"interfaces":[{"names":["i0","i1"],"routing_table":{}}],"location":{"latitude":41.38879,"longitude":2.15899},"name":"Barcelona"},{"interfaces":[{"names":["i0","i1","i2","i3","i4","i5","i6"],"routing_table":{}}],"location":{"latitude":48.85341,"longitude":2.3488},"name":"Paris"},{"interfaces":[{"names":["i0","i1","i2"],"routing_table":{}}],"location":{"latitude":50.85045,"longitude":4.34878},"name":"Brussels"},{"interfaces":[{"names":["i0","i1","i2","i3"],"routing_table":{}}],"location":{"latitude":47.56667,"longitude":7.6},"name":"Basel"},{"interfaces":[{"names":["i0","i1"],"routing_table":{}}],"location":{"latitude":47.36667,"longitude":8.55},"name":"Zurich"},{"interfaces":[{"names":["i0","i1","i2","i3","i4"],"routing_table":{}}],"location":{"latitude":45.46427,"longitude":9.18951},"name":"Milan"},{"interfaces":[{"names":["i0","i1","i2","i3","i4"],"routing_table":{}}],"location":{"latitude":45.07049,"longitude":7.68682},"name":"Turin"},{"interfaces":[{"names":["i0","i1"],"routing_table":{}}],"location":{"latitude":25.77427,"longitude":-80.19366},"name":"Miami"},{"interfaces":[{"names":["i0","i1","i2"],"routing_table":{}}],"location":{"latitude":43.70011,"longitude":-79.4163},"name":"Toronto"},{"interfaces":[{"names":["i0","i1"],"routing_table":{}}],"location":{"latitude":47.60621,"longitude":-122.33207},"name":"Seattle"},{"interfaces":[{"names":["i0","i1","i2","i3","i4"],"routing_table":{}}],"location":{"latitude":37.33939,"longitude":-121.89496},"name":"San_Jose"},{"interfaces":[{"names":["i0","i1","i2"],"routing_table":{}}],"location":{"latitude":34.05223,"longitude":-118.24368},"name":"Los_Angeles"},{"interfaces":[{"names":["i0","i1"],"routing_table":{}}],"location":{"latitude":39.73915,"longitude":-104.9847},"name":"Denver"},{"interfaces":[{"names":["i0","i1","i2","i3","i4","i5"],"routing_table":{}}],"location":{"latitude":41.85003,"longitude":-87.65005},"name":"Chicago"},{"interfaces":[{"names":["i0","i1","i2"],"routing_table":{}}],"location":{"latitude":32.78306,"longitude":-96.80667},"name":"Dallas"},{"interfaces":[{"names":["i0","i1","i2"],"routing_table":{}}],"location":{"latitude":33.749,"longitude":-84.38798},"name":"Atlanta"},{"interfaces":[{"names":["i0","i1","i2","i3"],"routing_table":{}}],"location":{"latitude":38.89511,"longitude":-77.03637},"name":"Washington_DC"}]}}
