{"network":{"links":[{"bandwidth":1000000,"bidirectional":true,"from_interface":"i0","from_router":"Klatovy","latency":70,"to_interface":"i0","to_router":"Plzen","weight":10},{"bandwidth":1000000,"bidirectional":true,"from_interface":"i0","from_router":"Pisek","latency":78,"to_interface":"i0","to_router":"Ceske_Budejovice","weight":10},{"bandwidth":1000000,"bidirectional":true,"from_interface":"i0","from_router":"Chomutov","latency":86,"to_interface":"i0","to_router":"Usti_nad_Labem","weight":10},{"bandwidth":1000000,"bidirectional":true,"from_interface":"i1","from_router":"Chomutov","latency":82,"to_interface":"i0","to_router":"Karlovy_vary","weight":10},{"bandwidth":1000000,"bidirectional":true,"from_interface":"i1","from_router":"Plzen","latency":97,"to_interface":"i0","to_router":"Beroun","weight":10},{"bandwidth":1000000,"bidirectional":true,"from_interface":"i2","from_router":"Plzen","latency":113,"to_interface":"i1","to_router":"Karlovy_vary","weight":10},{"bandwidth":1000000,"bidirectional":true,"from_interface":"i0","from_router":"Jindrichuv_Hradec","latency":115,"to_interface":"i0","to_router":"Havlickuv_Brod","weight":10},{"bandwidth":1000000,"bidirectional":true,"from_interface":"i1","from_router":"Jindrichuv_Hradec","latency":76,"to_interface":"i1","to_router":"Ceske_Budejovice","weight":10},{"bandwidth":1000000,"bidirectional":true,"from_interface":"i1","from_router":"Havlickuv_Brod","latency":150,"to_interface":"i0","to_router":"Brno","weight":10},{"bandwidth":1000000,"bidirectional":true,"from_interface":"i2","from_router":"Ceske_Budejovice","latency":211,"to_interface":"i0","to_router":"Prague","weight":10},{"bandwidth":1000000,"bidirectional":true,"from_interface":"i3","from_router":"Ceske_Budejovice","latency":89,"to_interface":"i0","to_router":"Tabor","weight":10},{"bandwidth":1000000,"bidirectional":true,"from_interface":"i0","from_router":"Zmjno","latency":107,"to_interface":"i1","to_router":"Brno","weight":10},{"bandwidth":1000000,"bidirectional":true,"from_interface":"i2","from_router":"Brno","latency":95,"to_interface":"i0","to_router":"Hodonin","weight":10},{"bandwidth":1000000,"bidirectional":true,"from_interface":"i3","from_router":"Brno","latency":107,"to_interface":"i0","to_router":"Bratislava","weight":10},{"bandwidth":1000000,"bidirectional":true,"from_interface":"i0","from_router":"None","latency":107,"to_interface":"i0","to_router":"Hardec_Kralove","weight":10},{"bandwidth":1000000,"bidirectional":true,"from_interface":"i1","from_router":"Hardec_Kralove","latency":107,"to_interface":"i0","to_router":"Semily","weight":10},{"bandwidth":1000000,"bidirectional":true,"from_interface":"i2","from_router":"Hardec_Kralove","latency":107,"to_interface":"i0","to_router":"Ceska_Trebova","weight":10},{"bandwidth":1000000,"bidirectional":true,"from_interface":"i3","from_router":"Hardec_Kralove","latency":107,"to_interface":"i1","to_router":"Prague","weight":10},{"bandwidth":1000000,"bidirectional":true,"from_interface":"i1","from_router":"Usti_nad_Labem","latency":126,"to_interface":"i0","to_router":"Liberec","weight":10},{"bandwidth":1000000,"bidirectional":true,"from_interface":"i0","from_router":"Kolin","latency":98,"to_interface":"i2","to_router":"Prague","weight":10},{"bandwidth":1000000,"bidirectional":true,"from_interface":"i0","from_router":"Ostrava","latency":54,"to_interface":"i0","to_router":"Opava","weight":10},{"bandwidth":1000000,"bidirectional":true,"from_interface":"i1","from_router":"Ostrava","latency":136,"to_interface":"i0","to_router":"Olomouc","weight":10},{"bandwidth":1000000,"bidirectional":true,"from_interface":"i2","from_router":"Ostrava","latency":107,"to_interface":"i0","to_router":"Warsaw","weight":10},{"bandwidth":1000000,"bidirectional":true,"from_interface":"i3","from_router":"Ostrava","latency":141,"to_interface":"i0","to_router":"Zlin","weight":10},{"bandwidth":1000000,"bidirectional":true,"from_interface":"i1","from_router":"Zlin","latency":269,"to_interface":"i0","to_router":"Ostrokovice","weight":10},{"bandwidth":1000000,"bidirectional":true,"from_interface":"i1","from_router":"Ostrokovice","latency":206,"to_interface":"i1","to_router":"Hodonin","weight":10},{"bandwidth":1000000,"bidirectional":true,"from_interface":"i0","from_router":"Frankfurt","latency":107,"to_interface":"i3","to_router":"Prague","weight":10},{"bandwidth":1000000,"bidirectional":true,"from_interface":"i0","from_router":"Prostejov","latency":33,"to_interface":"i1","to_router":"Olomouc","weight":10},{"bandwidth":1000000,"bidirectional":true,"from_interface":"i1","from_router":"Beroun","latency":52,"to_interface":"i4","to_router":"Prague","weight":10},{"bandwidth":1000000,"bidirectional":true,"from_interface":"i2","from_router":"Olomouc","latency":117,"to_interface":"i1","to_router":"Ceska_Trebova","weight":10},{"bandwidth":1000000,"bidirectional":true,"from_interface":"i1","from_router":"Liberec","latency":49,"to_interface":"i1","to_router":"Semily","weight":10},{"bandwidth":1000000,"bidirectional":true,"from_interface":"i0","from_router":"Kladno","latency":44,"to_interface":"i5","to_router":"Prague","weight":10},{"bandwidth":1000000,"bidirectional":true,"from_interface":"i6","from_router":"Prague","latency":87,"to_interface":"i0","to_router":"Mlada_Boleslay","weight":10}],"name":"GtsCzechRepublic","routers":[{"interfaces":[{"names":["i0"],"routing_table":{}}],"location":{"latitude":49.39552,"longitude":13.29505},"name":"Klatovy"},{"interfaces":[{"names":["i0"],"routing_table":{}}],"location":{"latitude":49.3088,"longitude":14.1475},"name":"Pisek"},{"interfaces":[{"names":["i0","i1"],"routing_table":{}}],"location":{"latitude":50.46048,"longitude":13.41779},"name":"Chomutov"},{"interfaces":[{"names":["i0","i1","i2"],"routing_table":{}}],"location":{"latitude":49.74747,"longitude":13.37759},"name":"Plzen"},{"interfaces":[{"names":["i0","i1"],"routing_table":{}}],"location":{"latitude":49.14404,"longitude":15.00301},"name":"Jindrichuv_Hradec"},{"interfaces":[{"names":["i0","i1"],"routing_table":{}}],"location":{"latitude":49.60785,"longitude":15.58069},"name":"Havlickuv_Brod"},{"interfaces":[{"names":["i0","i1","i2","i3"],"routing_table":{}}],"location":{"latitude":48.97447,"longitude":14.47434},"name":"Ceske_Budejovice"},{"interfaces":[{"names":["i0"],"routing_table":{}}],"location":{"latitude":49.41441,"longitude":14.6578},"name":"Tabor"},{"interfaces":[{"names":["i0"],"routing_table":{}}],"name":"Zmjno"},{"interfaces":[{"names":["i0","i1","i2","i3"],"routing_table":{}}],"location":{"latitude":49.19522,"longitude":16.60796},"name":"Brno"},{"interfaces":[{"names":["i0"],"routing_table":{}}],"name":"None"},{"interfaces":[{"names":["i0","i1","i2","i3"],"routing_table":{}}],"name":"Hardec_Kralove"},{"interfaces":[{"names":["i0","i1"],"routing_table":{}}],"location":{"latitude":50.6607,"longitude":14.03227},"name":"Usti_nad_Labem"},{"interfaces":[{"names":["i0"],"routing_table":{}}],"location":{"latitude":50.02814,"longitude":15.20057},"name":"Kolin"},{"interfaces":[{"names":["i0","i1","i2","i3"],"routing_table":{}}],"location":{"latitude":49.83465,"longitude":18.28204},"name":"Ostrava"},{"interfaces":[{"names":["i0","i1"],"routing_table":{}}],"location":{"latitude":49.21667,"longitude":17.66667},"name":"Zlin"},{"interfaces":[{"names":["i0","i1"],"routing_table":{}}],"location":{"latitude":49.03333,"longitude":15.5},"name":"Ostrokovice"},{"interfaces":[{"names":["i0","i1"],"routing_table":{}}],"location":{"latitude":48.84893,"longitude":17.13244},"name":"Hodonin"},{"interfaces":[{"names":["i0"],"routing_table":{}}],"name":"Bratislava"},{"interfaces":[{"names":["i0"],"routing_table":{}}],"name":"Frankfurt"},{"interfaces":[{"names":["i0"],"routing_table":{}}],"name":"Warsaw"},{"interfaces":[{"names":["i0"],"routing_table":{}}],"location":{"latitude":49.47188,"longitude":17.11184},"name":"Prostejov"},{"interfaces":[{"names":["i0","i1"],"routing_table":{}}],"location":{"latitude":49.96382,"longitude":14.072},"name":"Beroun"},{"interfaces":[{"names":["i0","i1"],"routing_table":{}}],"location":{"latitude":50.23271,"longitude":12.87117},"name":"Karlovy_vary"},{"interfaces":[{"names":["i0"],"routing_table":{}}],"location":{"latitude":49.93866,"longitude":17.90257},"name":"Opava"},{"interfaces":[{"names":["i0","i1","i2"],"routing_table":{}}],"location":{"latitude":49.59552,"longitude":17.25175},"name":"Olomouc"},{"interfaces":[{"names":["i0","i1"],"routing_table":{}}],"location":{"latitude":49.90436,"longitude":16.44413},"name":"Ceska_Trebova"},{"interfaces":[{"names":["i0","i1"],"routing_table":{}}],"location":{"latitude":50.76711,"longitude":15.05619},"name":"Liberec"},{"interfaces":[{"names":["i0","i1"],"routing_table":{}}],"location":{"latitude":50.60191,"longitude":15.33552},"name":"Semily"},{"interfaces":[{"names":["i0"],"routing_table":{}}],"location":{"latitude":50.14734,"longitude":14.10285},"name":"Kladno"},{"interfaces":[{"names":["i0","i1","i2","i3","i4","i5","i6"],"routing_table":{}}],"location":{"latitude":50.08804,"longitude":14.42076},"name":"Prague"},{"interfaces":[{"names":["i0"],"routing_table":{}}],"location":{"latitude":50.41135,"longitude":14.90318},"name":"Mlada_Boleslay"}]}}
