{"network":{"links":[{"bandwidth":1544,"bidirectional":true,"from_interface":"i0","from_router":"SEQSUINET,_Rice_University,_Houston","latency":1882,"to_interface":"i0","to_router":"SURANET,_Georgia_Tech,_Atlanta","weight":10},{"bandwidth":1544,"bidirectional":true,"from_interface":"i1","from_router":"SEQSUINET,_Rice_University,_Houston","latency":2204,"to_interface":"i0","to_router":"NCSA,_University_of_Illinois,_Champaign","weight":10},{"bandwidth":1544,"bidirectional":true,"from_interface":"i2","from_router":"SEQSUINET,_Rice_University,_Houston","latency":3492,"to_interface":"i0","to_router":"San_Diego_Supercomputer_Center","weight":10},{"bandwidth":1544,"bidirectional":true,"from_interface":"i0","from_router":"Jon_Von_Neumann_Center,_Princeton,_NJ","latency":1890,"to_interface":"i1","to_router":"SURANET,_Georgia_Tech,_Atlanta","weight":10},{"bandwidth":1544,"bidirectional":true,"from_interface":"i1","from_router":"Jon_Von_Neumann_Center,_Princeton,_NJ","latency":468,"to_interface":"i0","to_router":"Cornell_Theory_Center,_Ithaca_NY","weight":10},{"bandwidth":1544,"bidirectional":true,"from_interface":"i0","from_router":"Pittsburgh_Supercomputer_Center","latency":626,"to_interface":"i0","to_router":"Merit_Univ_of_Michigan,_Ann_Arbor","weight":10},{"bandwidth":1544,"bidirectional":true,"from_interface":"i1","from_router":"Cornell_Theory_Center,_Ithaca_NY","latency":996,"to_interface":"i1","to_router":"Merit_Univ_of_Michigan,_Ann_Arbor","weight":10},{"bandwidth":1544,"bidirectional":true,"from_interface":"i0","from_router":"NorthWestNet,_Seattle","latency":2674,"to_interface":"i0","to_router":"NCAR,_Boulder","weight":10},{"bandwidth":1544,"bidirectional":true,"from_interface":"i1","from_router":"NorthWestNet,_Seattle","latency":1887,"to_interface":"i0","to_router":"BARRnet,_Palo_Alto","weight":10},{"bandwidth":1544,"bidirectional":true,"from_interface":"i1","from_router":"BARRnet,_Palo_Alto","latency":5489,"to_interface":"i2","to_router":"Merit_Univ_of_Michigan,_Ann_Arbor","weight":10},{"bandwidth":1544,"bidirectional":true,"from_interface":"i2","from_router":"BARRnet,_Palo_Alto","latency":1160,"to_interface":"i1","to_router":"San_Diego_Supercomputer_Center","weight":10},{"bandwidth":1544,"bidirectional":true,"from_interface":"i0","from_router":"Westnet,_Salt_Lake_City","latency":948,"to_interface":"i1","to_router":"NCAR,_Boulder","weight":10},{"bandwidth":1544,"bidirectional":true,"from_interface":"i2","from_router":"NCAR,_Boulder","latency":2414,"to_interface":"i1","to_router":"NCSA,_University_of_Illinois,_Champaign","weight":10},{"bandwidth":1544,"bidirectional":true,"from_interface":"i0","from_router":"MIDnet,_Lincoln,_NE","latency":1198,"to_interface":"i2","to_router":"NCSA,_University_of_Illinois,_Champaign","weight":10},{"bandwidth":1544,"bidirectional":true,"from_interface":"i3","from_router":"NCSA,_University_of_Illinois,_Champaign","latency":749,"to_interface":"i3","to_router":"Merit_Univ_of_Michigan,_Ann_Arbor","weight":10}],"name":"Nsfnet","routers":[{"interfaces":[{"names":["i0","i1","i2"],"routing_table":{}}],"location":{"latitude":29.76328,"longitude":-95.36327},"name":"SEQSUINET,_Rice_University,_Houston"},{"interfaces":[{"names":["i0","i1"],"routing_table":{}}],"location":{"latitude":40.34872,"longitude":-74.65905},"name":"Jon_Von_Neumann_Center,_Princeton,_NJ"},{"interfaces":[{"names":["i0","i1"],"routing_table":{}}],"location":{"latitude":33.749,"longitude":-84.38798},"name":"SURANET,_Georgia_Tech,_Atlanta"},{"interfaces":[{"names":["i0"],"routing_table":{}}],"location":{"latitude":40.44062,"longitude":-79.99589},"name":"Pittsburgh_Supercomputer_Center"},{"interfaces":[{"names":["i0","i1"],"routing_table":{}}],"location":{"latitude":42.44063,"longitude":-76.49661},"name":"Cornell_Theory_Center,_Ithaca_NY"},{"interfaces":[{"names":["i0","i1"],"routing_table":{}}],"location":{"latitude":47.60621,"longitude":-122.33207},"name":"NorthWestNet,_Seattle"},{"interfaces":[{"names":["i0","i1","i2"],"routing_table":{}}],"location":{"latitude":37.44188,"longitude":-122.14302},"name":"BARRnet,_Palo_Alto"},{"interfaces":[{"names":["i0","i1"],"routing_table":{}}],"location":{"latitude":32.71533,"longitude":-117.15726},"name":"San_Diego_Supercomputer_Center"},{"interfaces":[{"names":["i0"],"routing_table":{}}],"location":{"latitude":40.76078,"longitude":-111.89105},"name":"Westnet,_Salt_Lake_City"},{"interfaces":[{"names":["i0","i1","i2"],"routing_table":{}}],"location":{"latitude":40.01499,"longitude":-105.27055},"name":"NCAR,_Boulder"},{"interfaces":[{"names":["i0"],"routing_table":{}}],"location":{"latitude":40.8,"longitude":-96.66696},"name":"MIDnet,_Lincoln,_NE"},{"interfaces":[{"names":["i0","i1","i2","i3"],"routing_table":{}}],"location":{"latitude":40.11642,"longitude":-88.24338},"name":"NCSA,_University_of_Illinois,_Champaign"},{"interfaces":[{"names":["i0","i1","i2","i3"],"routing_table":{}}],"location":{"latitude":42.27756,"longitude":-83.74088},"name":"Merit_Univ_of_Michigan,_Ann_Arbor"}]}}
