{"network":{"links":[{"bandwidth":1000000,"bidirectional":true,"from_interface":"i0","from_router":"Amsterdam","latency":611,"to_interface":"i0","to_router":"Frankfurt","weight":10},{"bandwidth":1000000,"bidirectional":true,"from_interface":"i1","from_router":"Amsterdam","latency":599,"to_interface":"i0","to_router":"London","weight":10},{"bandwidth":1000000,"bidirectional":true,"from_interface":"i2","from_router":"Amsterdam","latency":721,"to_interface":"i0","to_router":"Paris","weight":10},{"bandwidth":1000000,"bidirectional":true,"from_interface":"i3","from_router":"Amsterdam","latency":9767,"to_interface":"i0","to_router":"New_York_1","weight":10},{"bandwidth":1000000,"bidirectional":true,"from_interface":"i1","from_router":"Frankfurt","latency":801,"to_interface":"i1","to_router":"Paris","weight":10},{"bandwidth":1000000,"bidirectional":true,"from_interface":"i2","from_router":"Frankfurt","latency":514,"to_interface":"i0","to_router":"Zurich","weight":10},{"bandwidth":1000000,"bidirectional":true,"from_interface":"i3","from_router":"Frankfurt","latency":1980,"to_interface":"i0","to_router":"Stockholm","weight":10},{"bandwidth":1000000,"bidirectional":true,"from_interface":"i1","from_router":"London","latency":9281,"to_interface":"i1","to_router":"New_York_1","weight":10},{"bandwidth":1000000,"bidirectional":true,"from_interface":"i2","from_router":"London","latency":9859,"to_interface":"i0","to_router":"Ashburn","weight":10},{"bandwidth":1000000,"bidirectional":true,"from_interface":"i2","from_router":"Paris","latency":10307,"to_interface":"i1","to_router":"Ashburn","weight":10},{"bandwidth":1000000,"bidirectional":true,"from_interface":"i0","from_router":"Palo_Alto","latency":35,"to_interface":"i0","to_router":"Fremont_1","weight":10},{"bandwidth":1000000,"bidirectional":true,"from_interface":"i1","from_router":"Palo_Alto","latency":35,"to_interface":"i0","to_router":"Fremont_2","weight":10},{"bandwidth":1000000,"bidirectional":true,"from_interface":"i2","from_router":"Palo_Alto","latency":8133,"to_interface":"i0","to_router":"San_Jose_2","weight":10},{"bandwidth":1000000,"bidirectional":true,"from_interface":"i3","from_router":"Palo_Alto","latency":8133,"to_interface":"i0","to_router":"San_Jose_1","weight":10},{"bandwidth":1000000,"bidirectional":true,"from_interface":"i4","from_router":"Palo_Alto","latency":863,"to_interface":"i0","to_router":"Los_Angeles","weight":10},{"bandwidth":1000000,"bidirectional":true,"from_interface":"i5","from_router":"Palo_Alto","latency":6440,"to_interface":"i2","to_router":"Ashburn","weight":10},{"bandwidth":1000000,"bidirectional":true,"from_interface":"i1","from_router":"Fremont_1","latency":8122,"to_interface":"i1","to_router":"San_Jose_2","weight":10},{"bandwidth":1000000,"bidirectional":true,"from_interface":"i1","from_router":"Fremont_2","latency":8122,"to_interface":"i2","to_router":"San_Jose_2","weight":10},{"bandwidth":1000000,"bidirectional":true,"from_interface":"i3","from_router":"San_Jose_2","latency":5939,"to_interface":"i2","to_router":"New_York_1","weight":10},{"bandwidth":1000000,"bidirectional":true,"from_interface":"i4","from_router":"San_Jose_2","latency":5,"to_interface":"i1","to_router":"San_Jose_1","weight":10},{"bandwidth":1000000,"bidirectional":true,"from_interface":"i5","from_router":"San_Jose_2","latency":9178,"to_interface":"i0","to_router":"Seattle","weight":10},{"bandwidth":1000000,"bidirectional":true,"from_interface":"i6","from_router":"San_Jose_2","latency":5943,"to_interface":"i0","to_router":"Chicago","weight":10},{"bandwidth":1000000,"bidirectional":true,"from_interface":"i0","from_router":"New_York_3","latency":5,"to_interface":"i0","to_router":"New_York_2","weight":10},{"bandwidth":1000000,"bidirectional":true,"from_interface":"i1","from_router":"New_York_3","latency":5,"to_interface":"i3","to_router":"New_York_1","weight":10},{"bandwidth":1000000,"bidirectional":true,"from_interface":"i1","from_router":"New_York_2","latency":5,"to_interface":"i4","to_router":"New_York_1","weight":10},{"bandwidth":1000000,"bidirectional":true,"from_interface":"i2","from_router":"New_York_2","latency":930,"to_interface":"i0","to_router":"Toronto","weight":10},{"bandwidth":1000000,"bidirectional":true,"from_interface":"i5","from_router":"New_York_1","latency":6559,"to_interface":"i1","to_router":"Los_Angeles","weight":10},{"bandwidth":1000000,"bidirectional":true,"from_interface":"i6","from_router":"New_York_1","latency":1913,"to_interface":"i1","to_router":"Chicago","weight":10},{"bandwidth":1000000,"bidirectional":true,"from_interface":"i7","from_router":"New_York_1","latency":588,"to_interface":"i3","to_router":"Ashburn","weight":10},{"bandwidth":1000000,"bidirectional":true,"from_interface":"i2","from_router":"San_Jose_1","latency":26514,"to_interface":"i0","to_router":"Hong_Kong","weight":10},{"bandwidth":1000000,"bidirectional":true,"from_interface":"i3","from_router":"San_Jose_1","latency":21969,"to_interface":"i0","to_router":"Tokyo","weight":10},{"bandwidth":1000000,"bidirectional":true,"from_interface":"i0","from_router":"Atlanta","latency":1935,"to_interface":"i0","to_router":"Dallas","weight":10},{"bandwidth":1000000,"bidirectional":true,"from_interface":"i1","from_router":"Atlanta","latency":1425,"to_interface":"i4","to_router":"Ashburn","weight":10},{"bandwidth":1000000,"bidirectional":true,"from_interface":"i0","from_router":"Miami","latency":2498,"to_interface":"i5","to_router":"Ashburn","weight":10},{"bandwidth":1000000,"bidirectional":true,"from_interface":"i2","from_router":"Los_Angeles","latency":3320,"to_interface":"i1","to_router":"Dallas","weight":10},{"bandwidth":1000000,"bidirectional":true,"from_interface":"i2","from_router":"Dallas","latency":2155,"to_interface":"i2","to_router":"Chicago","weight":10},{"bandwidth":1000000,"bidirectional":true,"from_interface":"i3","from_router":"Dallas","latency":3118,"to_interface":"i6","to_router":"Ashburn","weight":10}],"name":"HurricaneElectric","routers":[{"interfaces":[{"names":["i0","i1","i2","i3"],"routing_table":{}}],"location":{"latitude":52.37403,"longitude":4.88969},"name":"Amsterdam"},{"interfaces":[{"names":["i0","i1","i2","i3"],"routing_table":{}}],"location":{"latitude":50.11667,"longitude":8.68333},"name":"Frankfurt"},{"interfaces":[{"names":["i0","i1","i2"],"routing_table":{}}],"location":{"latitude":51.50853,"longitude":-0.12574},"name":"London"},{"interfaces":[{"names":["i0","i1","i2"],"routing_table":{}}],"location":{"latitude":48.85341,"longitude":2.3488},"name":"Paris"},{"interfaces":[{"names":["i0","i1","i2","i3","i4","i5"],"routing_table":{}}],"location":{"latitude":37.44188,"longitude":-122.14302},"name":"Palo_Alto"},{"interfaces":[{"names":["i0","i1"],"routing_table":{}}],"location":{"latitude":37.54827,"longitude":-121.98857},"name":"Fremont_1"},{"interfaces":[{"names":["i0"],"routing_table":{}}],"location":{"latitude":47.36667,"longitude":8.55},"name":"Zurich"},{"interfaces":[{"names":["i0"],"routing_table":{}}],"location":{"latitude":59.33258,"longitude":18.0649},"name":"Stockholm"},{"interfaces":[{"names":["i0","i1"],"routing_table":{}}],"location":{"latitude":37.54827,"longitude":-121.98857},"name":"Fremont_2"},{"interfaces":[{"names":["i0","i1","i2","i3","i4","i5","i6"],"routing_table":{}}],"location":{"latitude":9.93333,"longitude":-84.08333},"name":"San_Jose_2"},{"interfaces":[{"names":["i0","i1"],"routing_table":{}}],"location":{"latitude":40.71427,"longitude":-74.00597},"name":"New_York_3"},{"interfaces":[{"names":["i0","i1","i2"],"routing_table":{}}],"location":{"latitude":40.71427,"longitude":-74.00597},"name":"New_York_2"},{"interfaces":[{"names":["i0","i1","i2","i3","i4","i5","i6","i7"],"routing_table":{}}],"location":{"latitude":40.71427,"longitude":-74.00597},"name":"New_York_1"},{"interfaces":[{"names":["i0","i1","i2","i3"],"routing_table":{}}],"location":{"latitude":9.93333,"longitude":-84.08333},"name":"San_Jose_1"},{"interfaces":[{"names":["i0","i1"],"routing_table":{}}],"location":{"latitude":33.749,"longitude":-84.38798},"name":"Atlanta"},{"interfaces":[{"names":["i0"],"routing_table":{}}],"location":{"latitude":25.77427,"longitude":-80.19366},"name":"Miami"},{"interfaces":[{"names":["i0"],"routing_table":{}}],"location":{"latitude":22.28552,"longitude":114.15769},"name":"Hong_Kong"},{"interfaces":[{"names":["i0"],"routing_table":{}}],"location":{"latitude":35.61488,"longitude":139.5813},"name":"Tokyo"},{"interfaces":[{"names":["i0"],"routing_table":{}}],"location":{"latitude":47.60621,"longitude":-122.33207},"name":"Seattle"},{"interfaces":[{"names":["i0","i1","i2"],"routing_table":{}}],"location":{"latitude":34.05223,"longitude":-118.24368},"name":"Los_Angeles"},{"interfaces":[{"names":["i0","i1","i2","i3"],"routing_table":{}}],"location":{"latitude":32.78306,"longitude":-96.80667},"name":"Dallas"},{"interfaces":[{"names":["i0","i1","i2"],"routing_table":{}}],"location":{"latitude":41.85003,"longitude":-87.65005},"name":"Chicago"},{"interfaces":[{"names":["i0"],"routing_table":{}}],"location":{"latitude":43.70011,"longitude":-79.4163},"name":"Toronto"},{"interfaces":[{"names":["i0","i1","i2","i3","i4","i5","i6"],"routing_table":{}}],"location":{"latitude":39.04372,"longitude":-77.48749},"name":"Ashburn"}]}}
