{"network":{"links":[{"bandwidth":1000000,"bidirectional":true,"from_interface":"i0","from_router":"Indianapolis_","latency":34,"to_interface":"i0","to_router":"Greenwood","weight":10},{"bandwidth":1000000,"bidirectional":true,"from_interface":"i1","from_router":"Indianapolis_","latency":162,"to_interface":"i0","to_router":"Lafayette","weight":10},{"bandwidth":1000000,"bidirectional":true,"from_interface":"i2","from_router":"Indianapolis_","latency":76,"to_interface":"i0","to_router":"Shelbyville","weight":10},{"bandwidth":1000000,"bidirectional":true,"from_interface":"i3","from_router":"Indianapolis_","latency":97,"to_interface":"i0","to_router":"Anderson","weight":10},{"bandwidth":1000000,"bidirectional":true,"from_interface":"i4","from_router":"Indianapolis_","latency":192,"to_interface":"i0","to_router":"Terre_Haute_","weight":10},{"bandwidth":1000000,"bidirectional":true,"from_interface":"i0","from_router":"Bloomington","latency":107,"to_interface":"i1","to_router":"Greenwood","weight":10},{"bandwidth":1000000,"bidirectional":true,"from_interface":"i1","from_router":"Bloomington","latency":92,"to_interface":"i0","to_router":"Columbus","weight":10},{"bandwidth":1000000,"bidirectional":true,"from_interface":"i1","from_router":"Shelbyville","latency":205,"to_interface":"i0","to_router":"Cincinnati_","weight":10},{"bandwidth":1000000,"bidirectional":true,"from_interface":"i2","from_router":"Shelbyville","latency":67,"to_interface":"i1","to_router":"Columbus","weight":10},{"bandwidth":1000000,"bidirectional":true,"from_interface":"i0","from_router":"Centralia_","latency":160,"to_interface":"i0","to_router":"St_Loius","weight":10},{"bandwidth":1000000,"bidirectional":true,"from_interface":"i1","from_router":"Centralia_","latency":213,"to_interface":"i0","to_router":"Mattoon_","weight":10},{"bandwidth":1000000,"bidirectional":true,"from_interface":"i2","from_router":"Columbus","latency":181,"to_interface":"i0","to_router":"Louisville","weight":10},{"bandwidth":1000000,"bidirectional":true,"from_interface":"i0","from_router":"Lansing","latency":133,"to_interface":"i0","to_router":"Flint","weight":10},{"bandwidth":1000000,"bidirectional":true,"from_interface":"i1","from_router":"Lansing","latency":97,"to_interface":"i0","to_router":"Jackson","weight":10},{"bandwidth":1000000,"bidirectional":true,"from_interface":"i2","from_router":"Lansing","latency":167,"to_interface":"i0","to_router":"Mt_Pleasant","weight":10},{"bandwidth":1000000,"bidirectional":true,"from_interface":"i3","from_router":"Lansing","latency":161,"to_interface":"i0","to_router":"Grand_Rapids","weight":10},{"bandwidth":1000000,"bidirectional":true,"from_interface":"i1","from_router":"Jackson","latency":95,"to_interface":"i0","to_router":"Ann_Arbor","weight":10},{"bandwidth":1000000,"bidirectional":true,"from_interface":"i2","from_router":"Jackson","latency":112,"to_interface":"i0","to_router":"Battle_Creek","weight":10},{"bandwidth":1000000,"bidirectional":true,"from_interface":"i1","from_router":"St_Loius","latency":236,"to_interface":"i0","to_router":"Springfield_","weight":10},{"bandwidth":1000000,"bidirectional":true,"from_interface":"i1","from_router":"Lafayette","latency":110,"to_interface":"i0","to_router":"Kokomo","weight":10},{"bandwidth":1000000,"bidirectional":true,"from_interface":"i2","from_router":"Lafayette","latency":232,"to_interface":"i0","to_router":"Gary","weight":10},{"bandwidth":1000000,"bidirectional":true,"from_interface":"i1","from_router":"Grand_Rapids","latency":129,"to_interface":"i0","to_router":"Kalamazoo","weight":10},{"bandwidth":1000000,"bidirectional":true,"from_interface":"i2","from_router":"Grand_Rapids","latency":98,"to_interface":"i0","to_router":"Muskegon","weight":10},{"bandwidth":1000000,"bidirectional":true,"from_interface":"i1","from_router":"Muskegon","latency":215,"to_interface":"i1","to_router":"Mt_Pleasant","weight":10},{"bandwidth":1000000,"bidirectional":true,"from_interface":"i2","from_router":"Muskegon","latency":300,"to_interface":"i0","to_router":"Traverse_City","weight":10},{"bandwidth":1000000,"bidirectional":true,"from_interface":"i1","from_router":"Gary","latency":87,"to_interface":"i0","to_router":"La_Grange","weight":10},{"bandwidth":1000000,"bidirectional":true,"from_interface":"i1","from_router":"Battle_Creek","latency":61,"to_interface":"i1","to_router":"Kalamazoo","weight":10},{"bandwidth":1000000,"bidirectional":true,"from_interface":"i0","from_router":"Rockford_","latency":159,"to_interface":"i0","to_router":"Madison_","weight":10},{"bandwidth":1000000,"bidirectional":true,"from_interface":"i1","from_router":"Rockford_","latency":184,"to_interface":"i0","to_router":"Oak_Brook_","weight":10},{"bandwidth":1000000,"bidirectional":true,"from_interface":"i1","from_router":"Madison_","latency":215,"to_interface":"i0","to_router":"Oshkosh_","weight":10},{"bandwidth":1000000,"bidirectional":true,"from_interface":"i2","from_router":"Madison_","latency":207,"to_interface":"i0","to_router":"Milwaukee_","weight":10},{"bandwidth":1000000,"bidirectional":true,"from_interface":"i0","from_router":"Muncie","latency":49,"to_interface":"i1","to_router":"Anderson","weight":10},{"bandwidth":1000000,"bidirectional":true,"from_interface":"i1","from_router":"Muncie","latency":81,"to_interface":"i0","to_router":"Marion","weight":10},{"bandwidth":1000000,"bidirectional":true,"from_interface":"i1","from_router":"Mattoon_","latency":123,"to_interface":"i0","to_router":"Champaign_","weight":10},{"bandwidth":1000000,"bidirectional":true,"from_interface":"i2","from_router":"Mattoon_","latency":142,"to_interface":"i1","to_router":"Terre_Haute_","weight":10},{"bandwidth":1000000,"bidirectional":true,"from_interface":"i1","from_router":"Champaign_","latency":127,"to_interface":"i0","to_router":"None","weight":10},{"bandwidth":1000000,"bidirectional":true,"from_interface":"i0","from_router":"Bloomington2","latency":127,"to_interface":"i1","to_router":"None","weight":10},{"bandwidth":1000000,"bidirectional":true,"from_interface":"i1","from_router":"Bloomington2","latency":97,"to_interface":"i0","to_router":"Peoria_","weight":10},{"bandwidth":1000000,"bidirectional":true,"from_interface":"i1","from_router":"Peoria_","latency":170,"to_interface":"i1","to_router":"Springfield_","weight":10},{"bandwidth":1000000,"bidirectional":true,"from_interface":"i2","from_router":"Springfield_","latency":127,"to_interface":"i2","to_router":"None","weight":10},{"bandwidth":1000000,"bidirectional":true,"from_interface":"i1","from_router":"Ann_Arbor","latency":82,"to_interface":"i0","to_router":"Southfield/Detroit","weight":10},{"bandwidth":1000000,"bidirectional":true,"from_interface":"i1","from_router":"Traverse_City","latency":338,"to_interface":"i0","to_router":"Saginaw","weight":10},{"bandwidth":1000000,"bidirectional":true,"from_interface":"i2","from_router":"Mt_Pleasant","latency":74,"to_interface":"i0","to_router":"Midland","weight":10},{"bandwidth":1000000,"bidirectional":true,"from_interface":"i0","from_router":"Portage","latency":134,"to_interface":"i0","to_router":"South_Bend","weight":10},{"bandwidth":1000000,"bidirectional":true,"from_interface":"i1","from_router":"Portage","latency":87,"to_interface":"i0","to_router":"Chicago_","weight":10},{"bandwidth":1000000,"bidirectional":true,"from_interface":"i1","from_router":"Chicago_","latency":127,"to_interface":"i3","to_router":"None","weight":10},{"bandwidth":1000000,"bidirectional":true,"from_interface":"i2","from_router":"Chicago_","latency":43,"to_interface":"i1","to_router":"Oak_Brook_","weight":10},{"bandwidth":1000000,"bidirectional":true,"from_interface":"i1","from_router":"Midland","latency":58,"to_interface":"i1","to_router":"Saginaw","weight":10},{"bandwidth":1000000,"bidirectional":true,"from_interface":"i2","from_router":"Saginaw","latency":5,"to_interface":"i0","to_router":"Saginaw2","weight":10},{"bandwidth":1000000,"bidirectional":true,"from_interface":"i0","from_router":"None2","latency":127,"to_interface":"i0","to_router":"Lima","weight":10},{"bandwidth":1000000,"bidirectional":true,"from_interface":"i1","from_router":"None2","latency":127,"to_interface":"i0","to_router":"Cleveland","weight":10},{"bandwidth":1000000,"bidirectional":true,"from_interface":"i2","from_router":"None2","latency":127,"to_interface":"i0","to_router":"Columbus_","weight":10},{"bandwidth":1000000,"bidirectional":true,"from_interface":"i0","from_router":"Appleton_","latency":52,"to_interface":"i1","to_router":"Oshkosh_","weight":10},{"bandwidth":1000000,"bidirectional":true,"from_interface":"i1","from_router":"Appleton_","latency":75,"to_interface":"i0","to_router":"Green_Bay_","weight":10},{"bandwidth":1000000,"bidirectional":true,"from_interface":"i1","from_router":"Milwaukee_","latency":174,"to_interface":"i0","to_router":"Northbrook_","weight":10},{"bandwidth":1000000,"bidirectional":true,"from_interface":"i2","from_router":"Milwaukee_","latency":279,"to_interface":"i1","to_router":"Green_Bay_","weight":10},{"bandwidth":1000000,"bidirectional":true,"from_interface":"i0","from_router":"Des_Plaines_","latency":23,"to_interface":"i1","to_router":"Northbrook_","weight":10},{"bandwidth":1000000,"bidirectional":true,"from_interface":"i1","from_router":"Des_Plaines_","latency":42,"to_interface":"i2","to_router":"Oak_Brook_","weight":10},{"bandwidth":1000000,"bidirectional":true,"from_interface":"i1","from_router":"La_Grange","latency":14,"to_interface":"i3","to_router":"Oak_Brook_","weight":10},{"bandwidth":1000000,"bidirectional":true,"from_interface":"i2","from_router":"La_Grange","latency":14,"to_interface":"i4","to_router":"Oak_Brook_","weight":10},{"bandwidth":1000000,"bidirectional":true,"from_interface":"i1","from_router":"Lima","latency":165,"to_interface":"i0","to_router":"Fort_Wayne","weight":10},{"bandwidth":1000000,"bidirectional":true,"from_interface":"i1","from_router":"Fort_Wayne","latency":160,"to_interface":"i0","to_router":"Elkhart","weight":10},{"bandwidth":1000000,"bidirectional":true,"from_interface":"i2","from_router":"Fort_Wayne","latency":135,"to_interface":"i1","to_router":"Marion","weight":10},{"bandwidth":1000000,"bidirectional":true,"from_interface":"i1","from_router":"South_Bend","latency":42,"to_interface":"i1","to_router":"Elkhart","weight":10},{"bandwidth":1000000,"bidirectional":true,"from_interface":"i2","from_router":"South_Bend","latency":32,"to_interface":"i0","to_router":"Niles","weight":10},{"bandwidth":1000000,"bidirectional":true,"from_interface":"i3","from_router":"South_Bend","latency":104,"to_interface":"i0","to_router":"Warsaw","weight":10},{"bandwidth":1000000,"bidirectional":true,"from_interface":"i1","from_router":"Warsaw","latency":135,"to_interface":"i2","to_router":"Marion","weight":10},{"bandwidth":1000000,"bidirectional":true,"from_interface":"i3","from_router":"Marion","latency":72,"to_interface":"i1","to_router":"Kokomo","weight":10},{"bandwidth":1000000,"bidirectional":true,"from_interface":"i2","from_router":"Elkhart","latency":72,"to_interface":"i0","to_router":"Three_Rivers","weight":10},{"bandwidth":1000000,"bidirectional":true,"from_interface":"i3","from_router":"Elkhart","latency":339,"to_interface":"i0","to_router":"Toledo","weight":10},{"bandwidth":1000000,"bidirectional":true,"from_interface":"i1","from_router":"Three_Rivers","latency":69,"to_interface":"i2","to_router":"Kalamazoo","weight":10},{"bandwidth":1000000,"bidirectional":true,"from_interface":"i3","from_router":"Kalamazoo","latency":130,"to_interface":"i1","to_router":"Niles","weight":10},{"bandwidth":1000000,"bidirectional":true,"from_interface":"i0","from_router":"Dayton_","latency":121,"to_interface":"i1","to_router":"Cincinnati_","weight":10},{"bandwidth":1000000,"bidirectional":true,"from_interface":"i1","from_router":"Dayton_","latency":178,"to_interface":"i1","to_router":"Columbus_","weight":10},{"bandwidth":1000000,"bidirectional":true,"from_interface":"i1","from_router":"Saginaw2","latency":88,"to_interface":"i1","to_router":"Flint","weight":10},{"bandwidth":1000000,"bidirectional":true,"from_interface":"i2","from_router":"Flint","latency":92,"to_interface":"i0","to_router":"Pontiac","weight":10},{"bandwidth":1000000,"bidirectional":true,"from_interface":"i1","from_router":"Pontiac","latency":35,"to_interface":"i1","to_router":"Southfield/Detroit","weight":10},{"bandwidth":1000000,"bidirectional":true,"from_interface":"i2","from_router":"Southfield/Detroit","latency":161,"to_interface":"i1","to_router":"Toledo","weight":10},{"bandwidth":1000000,"bidirectional":true,"from_interface":"i2","from_router":"Toledo","latency":264,"to_interface":"i1","to_router":"Cleveland","weight":10}],"name":"UsSignal","routers":[{"interfaces":[{"names":["i0","i1","i2","i3","i4"],"routing_table":{}}],"location":{"latitude":39.76838,"longitude":-86.15804},"name":"Indianapolis_"},{"interfaces":[{"names":["i0","i1"],"routing_table":{}}],"location":{"latitude":39.16532,"longitude":-86.52639},"name":"Bloomington"},{"interfaces":[{"names":["i0","i1","i2"],"routing_table":{}}],"location":{"latitude":39.52144,"longitude":-85.77692},"name":"Shelbyville"},{"interfaces":[{"names":["i0","i1"],"routing_table":{}}],"location":{"latitude":39.61366,"longitude":-86.10665},"name":"Greenwood"},{"interfaces":[{"names":["i0","i1"],"routing_table":{}}],"location":{"latitude":38.52505,"longitude":-89.1334},"name":"Centralia_"},{"interfaces":[{"names":["i0","i1","i2"],"routing_table":{}}],"location":{"latitude":39.20144,"longitude":-85.92138},"name":"Columbus"},{"interfaces":[{"names":["i0"],"routing_table":{}}],"location":{"latitude":38.25424,"longitude":-85.75941},"name":"Louisville"},{"interfaces":[{"names":["i0","i1","i2","i3"],"routing_table":{}}],"location":{"latitude":42.73254,"longitude":-84.55553},"name":"Lansing"},{"interfaces":[{"names":["i0","i1","i2"],"routing_table":{}}],"location":{"latitude":42.24587,"longitude":-84.40135},"name":"Jackson"},{"interfaces":[{"names":["i0","i1"],"routing_table":{}}],"location":{"latitude":38.62727,"longitude":-90.19789},"name":"St_Loius"},{"interfaces":[{"names":["i0","i1","i2"],"routing_table":{}}],"location":{"latitude":40.4167,"longitude":-86.87529},"name":"Lafayette"},{"interfaces":[{"names":["i0","i1","i2"],"routing_table":{}}],"location":{"latitude":42.96336,"longitude":-85.66809},"name":"Grand_Rapids"},{"interfaces":[{"names":["i0","i1","i2"],"routing_table":{}}],"location":{"latitude":43.23418,"longitude":-86.24839},"name":"Muskegon"},{"interfaces":[{"names":["i0","i1"],"routing_table":{}}],"location":{"latitude":41.59337,"longitude":-87.34643},"name":"Gary"},{"interfaces":[{"names":["i0","i1"],"routing_table":{}}],"location":{"latitude":42.32115,"longitude":-85.17971},"name":"Battle_Creek"},{"interfaces":[{"names":["i0","i1"],"routing_table":{}}],"location":{"latitude":42.27113,"longitude":-89.094},"name":"Rockford_"},{"interfaces":[{"names":["i0","i1","i2"],"routing_table":{}}],"location":{"latitude":43.07305,"longitude":-89.40123},"name":"Madison_"},{"interfaces":[{"names":["i0","i1"],"routing_table":{}}],"location":{"latitude":40.19338,"longitude":-85.38636},"name":"Muncie"},{"interfaces":[{"names":["i0","i1"],"routing_table":{}}],"location":{"latitude":40.10532,"longitude":-85.68025},"name":"Anderson"},{"interfaces":[{"names":["i0","i1","i2"],"routing_table":{}}],"location":{"latitude":39.48309,"longitude":-88.37283},"name":"Mattoon_"},{"interfaces":[{"names":["i0","i1"],"routing_table":{}}],"location":{"latitude":39.4667,"longitude":-87.41391},"name":"Terre_Haute_"},{"interfaces":[{"names":["i0","i1"],"routing_table":{}}],"location":{"latitude":40.11642,"longitude":-88.24338},"name":"Champaign_"},{"interfaces":[{"names":["i0","i1"],"routing_table":{}}],"location":{"latitude":40.4842,"longitude":-88.99369},"name":"Bloomington2"},{"interfaces":[{"names":["i0","i1"],"routing_table":{}}],"location":{"latitude":40.69365,"longitude":-89.58899},"name":"Peoria_"},{"interfaces":[{"names":["i0","i1","i2"],"routing_table":{}}],"location":{"latitude":39.80172,"longitude":-89.64371},"name":"Springfield_"},{"interfaces":[{"names":["i0","i1"],"routing_table":{}}],"location":{"latitude":42.27756,"longitude":-83.74088},"name":"Ann_Arbor"},{"interfaces":[{"names":["i0","i1"],"routing_table":{}}],"location":{"latitude":44.76306,"longitude":-85.62063},"name":"Traverse_City"},{"interfaces":[{"names":["i0","i1","i2"],"routing_table":{}}],"location":{"latitude":43.59781,"longitude":-84.76751},"name":"Mt_Pleasant"},{"interfaces":[{"names":["i0","i1"],"routing_table":{}}],"location":{"latitude":41.57587,"longitude":-87.17615},"name":"Portage"},{"interfaces":[{"names":["i0","i1","i2"],"routing_table":{}}],"location":{"latitude":41.85003,"longitude":-87.65005},"name":"Chicago_"},{"interfaces":[{"names":["i0","i1"],"routing_table":{}}],"location":{"latitude":43.61558,"longitude":-84.24721},"name":"Midland"},{"interfaces":[{"names":["i0","i1","i2","i3"],"routing_table":{}}],"name":"None"},{"interfaces":[{"names":["i0","i1","i2"],"routing_table":{}}],"location":{"latitude":43.41947,"longitude":-83.95081},"name":"Saginaw"},{"interfaces":[{"names":["i0","i1","i2"],"routing_table":{}}],"name":"None2"},{"interfaces":[{"names":["i0","i1"],"routing_table":{}}],"location":{"latitude":44.26193,"longitude":-88.41538},"name":"Appleton_"},{"interfaces":[{"names":["i0","i1"],"routing_table":{}}],"location":{"latitude":44.02471,"longitude":-88.54261},"name":"Oshkosh_"},{"interfaces":[{"names":["i0","i1","i2"],"routing_table":{}}],"location":{"latitude":43.0389,"longitude":-87.90647},"name":"Milwaukee_"},{"interfaces":[{"names":["i0","i1"],"routing_table":{}}],"location":{"latitude":44.51916,"longitude":-88.01983},"name":"Green_Bay_"},{"interfaces":[{"names":["i0","i1"],"routing_table":{}}],"location":{"latitude":42.03336,"longitude":-87.8834},"name":"Des_Plaines_"},{"interfaces":[{"names":["i0","i1"],"routing_table":{}}],"location":{"latitude":42.12753,"longitude":-87.82895},"name":"Northbrook_"},{"interfaces":[{"names":["i0","i1","i2"],"routing_table":{}}],"location":{"latitude":41.80503,"longitude":-87.86923},"name":"La_Grange"},{"interfaces":[{"names":["i0","i1","i2","i3","i4"],"routing_table":{}}],"location":{"latitude":41.83281,"longitude":-87.92895},"name":"Oak_Brook_"},{"interfaces":[{"names":["i0","i1"],"routing_table":{}}],"location":{"latitude":40.74255,"longitude":-84.10523},"name":"Lima"},{"interfaces":[{"names":["i0","i1","i2"],"routing_table":{}}],"location":{"latitude":41.1306,"longitude":-85.12886},"name":"Fort_Wayne"},{"interfaces":[{"names":["i0","i1","i2","i3"],"routing_table":{}}],"location":{"latitude":41.68338,"longitude":-86.25001},"name":"South_Bend"},{"interfaces":[{"names":["i0","i1"],"routing_table":{}}],"location":{"latitude":41.2381,"longitude":-85.85305},"name":"Warsaw"},{"interfaces":[{"names":["i0","i1","i2","i3"],"routing_table":{}}],"location":{"latitude":40.54969,"longitude":-85.6597},"name":"Marion"},{"interfaces":[{"names":["i0","i1"],"routing_table":{}}],"location":{"latitude":40.48643,"longitude":-86.1336},"name":"Kokomo"},{"interfaces":[{"names":["i0","i1","i2","i3"],"routing_table":{}}],"location":{"latitude":41.68199,"longitude":-85.97667},"name":"Elkhart"},{"interfaces":[{"names":["i0","i1"],"routing_table":{}}],"location":{"latitude":41.94394,"longitude":-85.63249},"name":"Three_Rivers"},{"interfaces":[{"names":["i0","i1","i2","i3"],"routing_table":{}}],"location":{"latitude":42.29171,"longitude":-85.58723},"name":"Kalamazoo"},{"interfaces":[{"names":["i0","i1"],"routing_table":{}}],"location":{"latitude":41.82977,"longitude":-86.25418},"name":"Niles"},{"interfaces":[{"names":["i0","i1"],"routing_table":{}}],"location":{"latitude":39.75895,"longitude":-84.19161},"name":"Dayton_"},{"interfaces":[{"names":["i0","i1"],"routing_table":{}}],"location":{"latitude":39.162,"longitude":-84.45689},"name":"Cincinnati_"},{"interfaces":[{"names":["i0","i1"],"routing_table":{}}],"location":{"latitude":43.41947,"longitude":-83.95081},"name":"Saginaw2"},{"interfaces":[{"names":["i0","i1","i2"],"routing_table":{}}],"location":{"latitude":43.01253,"longitude":-83.68746},"name":"Flint"},{"interfaces":[{"names":["i0","i1"],"routing_table":{}}],"location":{"latitude":42.63892,"longitude":-83.29105},"name":"Pontiac"},{"interfaces":[{"names":["i0","i1","i2"],"routing_table":{}}],"location":{"latitude":42.4762,"longitude":-83.2428},"name":"Southfield/Detroit"},{"interfaces":[{"names":["i0","i1","i2"],"routing_table":{}}],"location":{"latitude":41.66394,"longitude":-83.55521},"name":"Toledo"},{"interfaces":[{"names":["i0","i1"],"routing_table":{}}],"location":{"latitude":41.4995,"longitude":-81.69541},"name":"Cleveland"},{"interfaces":[{"names":["i0","i1"],"routing_table":{}}],"location":{"latitude":39.96118,"longitude":-82.99879},"name":"Columbus_"}]}}
