{"network":{"links":[{"bandwidth":1000000,"bidirectional":true,"from_interface":"i0","from_router":"Portsmouth","latency":73,"to_interface":"i0","to_router":"Sanford","weight":10},{"bandwidth":1000000,"bidirectional":true,"from_interface":"i1","from_router":"Portsmouth","latency":133,"to_interface":"i0","to_router":"Portland","weight":10},{"bandwidth":1000000,"bidirectional":true,"from_interface":"i2","from_router":"Portsmouth","latency":99,"to_interface":"i0","to_router":"Manchester","weight":10},{"bandwidth":1000000,"bidirectional":true,"from_interface":"i0","from_router":"Dover","latency":124,"to_interface":"i1","to_router":"Portland","weight":10},{"bandwidth":1000000,"bidirectional":true,"from_interface":"i1","from_router":"Dover","latency":201,"to_interface":"i0","to_router":"Keene","weight":10},{"bandwidth":1000000,"bidirectional":true,"from_interface":"i0","from_router":"Biddeford","latency":49,"to_interface":"i1","to_router":"Sanford","weight":10},{"bandwidth":1000000,"bidirectional":true,"from_interface":"i1","from_router":"Biddeford","latency":46,"to_interface":"i2","to_router":"Portland","weight":10},{"bandwidth":1000000,"bidirectional":true,"from_interface":"i0","from_router":"Boston","latency":55,"to_interface":"i0","to_router":"Framingham","weight":10},{"bandwidth":1000000,"bidirectional":true,"from_interface":"i1","from_router":"Boston","latency":134,"to_interface":"i1","to_router":"Manchester","weight":10},{"bandwidth":1000000,"bidirectional":true,"from_interface":"i1","from_router":"Framingham","latency":58,"to_interface":"i0","to_router":"Worcester","weight":10},{"bandwidth":1000000,"bidirectional":true,"from_interface":"i1","from_router":"Keene","latency":164,"to_interface":"i0","to_router":"Springfield","weight":10},{"bandwidth":1000000,"bidirectional":true,"from_interface":"i1","from_router":"Worcester","latency":117,"to_interface":"i1","to_router":"Springfield","weight":10},{"bandwidth":1000000,"bidirectional":true,"from_interface":"i0","from_router":"Bangor","latency":235,"to_interface":"i0","to_router":"Lewiston","weight":10},{"bandwidth":1000000,"bidirectional":true,"from_interface":"i1","from_router":"Bangor","latency":165,"to_interface":"i0","to_router":"Augusta2","weight":10},{"bandwidth":1000000,"bidirectional":true,"from_interface":"i3","from_router":"Portland","latency":86,"to_interface":"i1","to_router":"Lewiston","weight":10},{"bandwidth":1000000,"bidirectional":true,"from_interface":"i4","from_router":"Portland","latency":47,"to_interface":"i0","to_router":"Standish","weight":10},{"bandwidth":1000000,"bidirectional":true,"from_interface":"i0","from_router":"Turner","latency":68,"to_interface":"i0","to_router":"Augusta","weight":10},{"bandwidth":1000000,"bidirectional":true,"from_interface":"i1","from_router":"Turner","latency":80,"to_interface":"i0","to_router":"Bethel","weight":10},{"bandwidth":1000000,"bidirectional":true,"from_interface":"i1","from_router":"Bethel","latency":52,"to_interface":"i0","to_router":"Norway","weight":10},{"bandwidth":1000000,"bidirectional":true,"from_interface":"i1","from_router":"Norway","latency":32,"to_interface":"i0","to_router":"Buckfield","weight":10},{"bandwidth":1000000,"bidirectional":true,"from_interface":"i2","from_router":"Norway","latency":93,"to_interface":"i1","to_router":"Standish","weight":10},{"bandwidth":1000000,"bidirectional":true,"from_interface":"i2","from_router":"Standish","latency":110,"to_interface":"i1","to_router":"Buckfield","weight":10},{"bandwidth":1000000,"bidirectional":true,"from_interface":"i2","from_router":"Buckfield","latency":82,"to_interface":"i1","to_router":"Augusta","weight":10},{"bandwidth":1000000,"bidirectional":true,"from_interface":"i2","from_router":"Augusta","latency":74,"to_interface":"i2","to_router":"Lewiston","weight":10},{"bandwidth":1000000,"bidirectional":true,"from_interface":"i3","from_router":"Augusta","latency":5,"to_interface":"i1","to_router":"Augusta2","weight":10},{"bandwidth":1000000,"bidirectional":true,"from_interface":"i3","from_router":"Lewiston","latency":74,"to_interface":"i2","to_router":"Augusta2","weight":10}],"name":"Oxford","routers":[{"interfaces":[{"names":["i0","i1","i2"],"routing_table":{}}],"location":{"latitude":43.07176,"longitude":-70.76255},"name":"Portsmouth"},{"interfaces":[{"names":["i0","i1"],"routing_table":{}}],"location":{"latitude":43.19786,"longitude":-70.87367},"name":"Dover"},{"interfaces":[{"names":["i0","i1"],"routing_table":{}}],"location":{"latitude":43.49258,"longitude":-70.45338},"name":"Biddeford"},{"interfaces":[{"names":["i0","i1"],"routing_table":{}}],"location":{"latitude":43.43925,"longitude":-70.77422},"name":"Sanford"},{"interfaces":[{"names":["i0","i1"],"routing_table":{}}],"location":{"latitude":42.35843,"longitude":-71.05977},"name":"Boston"},{"interfaces":[{"names":["i0","i1"],"routing_table":{}}],"location":{"latitude":42.27926,"longitude":-71.41617},"name":"Framingham"},{"interfaces":[{"names":["i0","i1"],"routing_table":{}}],"location":{"latitude":42.99564,"longitude":-71.45479},"name":"Manchester"},{"interfaces":[{"names":["i0","i1"],"routing_table":{}}],"location":{"latitude":42.93369,"longitude":-72.27814},"name":"Keene"},{"interfaces":[{"names":["i0","i1"],"routing_table":{}}],"location":{"latitude":42.26259,"longitude":-71.80229},"name":"Worcester"},{"interfaces":[{"names":["i0","i1"],"routing_table":{}}],"location":{"latitude":42.10148,"longitude":-72.58981},"name":"Springfield"},{"interfaces":[{"names":["i0","i1"],"routing_table":{}}],"location":{"latitude":44.80118,"longitude":-68.77781},"name":"Bangor"},{"interfaces":[{"names":["i0","i1","i2","i3","i4"],"routing_table":{}}],"location":{"latitude":43.66147,"longitude":-70.25533},"name":"Portland"},{"interfaces":[{"names":["i0","i1"],"routing_table":{}}],"location":{"latitude":44.25646,"longitude":-70.25617},"name":"Turner"},{"interfaces":[{"names":["i0","i1"],"routing_table":{}}],"location":{"latitude":44.40423,"longitude":-70.79062},"name":"Bethel"},{"interfaces":[{"names":["i0","i1","i2"],"routing_table":{}}],"location":{"latitude":44.21396,"longitude":-70.54478},"name":"Norway"},{"interfaces":[{"names":["i0","i1","i2"],"routing_table":{}}],"location":{"latitude":43.73591,"longitude":-70.552},"name":"Standish"},{"interfaces":[{"names":["i0","i1","i2"],"routing_table":{}}],"location":{"latitude":44.28951,"longitude":-70.36534},"name":"Buckfield"},{"interfaces":[{"names":["i0","i1","i2","i3"],"routing_table":{}}],"location":{"latitude":44.31062,"longitude":-69.77949},"name":"Augusta"},{"interfaces":[{"names":["i0","i1","i2","i3"],"routing_table":{}}],"location":{"latitude":44.10035,"longitude":-70.21478},"name":"Lewiston"},{"interfaces":[{"names":["i0","i1","i2"],"routing_table":{}}],"location":{"latitude":44.31062,"longitude":-69.77949},"name":"Augusta2"}]}}
