{"network":{"links":[{"bandwidth":100000,"bidirectional":true,"from_interface":"i0","from_router":"Iecava","latency":70,"to_interface":"i0","to_router":"Riga","weight":10},{"bandwidth":100000,"bidirectional":true,"from_interface":"i0","from_router":"Vircava","latency":13,"to_interface":"i0","to_router":"Platone","weight":10},{"bandwidth":100000,"bidirectional":true,"from_interface":"i0","from_router":"Kraslava","latency":374,"to_interface":"i1","to_router":"Riga","weight":10},{"bandwidth":100000,"bidirectional":true,"from_interface":"i0","from_router":"Baldone","latency":55,"to_interface":"i2","to_router":"Riga","weight":10},{"bandwidth":100000,"bidirectional":true,"from_interface":"i0","from_router":"Auce","latency":54,"to_interface":"i0","to_router":"Dobele","weight":10},{"bandwidth":100000,"bidirectional":true,"from_interface":"i0","from_router":"Broceni","latency":13,"to_interface":"i0","to_router":"Saldus","weight":10},{"bandwidth":100000,"bidirectional":true,"from_interface":"i1","from_router":"Platone","latency":25,"to_interface":"i0","to_router":"Jelgava","weight":10},{"bandwidth":100000,"bidirectional":true,"from_interface":"i2","from_router":"Platone","latency":27,"to_interface":"i0","to_router":"Eleja","weight":10},{"bandwidth":100000,"bidirectional":true,"from_interface":"i1","from_router":"Dobele","latency":49,"to_interface":"i1","to_router":"Jelgava","weight":10},{"bandwidth":100000,"bidirectional":true,"from_interface":"i0","from_router":"Krimulda","latency":21,"to_interface":"i0","to_router":"Sigulda","weight":10},{"bandwidth":100000,"bidirectional":true,"from_interface":"i0","from_router":"Vijkene","latency":25,"to_interface":"i0","to_router":"Limbazi","weight":10},{"bandwidth":100000,"bidirectional":true,"from_interface":"i1","from_router":"Saldus","latency":177,"to_interface":"i3","to_router":"Riga","weight":10},{"bandwidth":100000,"bidirectional":true,"from_interface":"i0","from_router":"Kapsede","latency":23,"to_interface":"i0","to_router":"Liepaja","weight":10},{"bandwidth":100000,"bidirectional":true,"from_interface":"i0","from_router":"Viesite","latency":46,"to_interface":"i0","to_router":"Jekabpils","weight":10},{"bandwidth":100000,"bidirectional":true,"from_interface":"i1","from_router":"Viesite","latency":61,"to_interface":"i0","to_router":"Aizkroukle","weight":10},{"bandwidth":100000,"bidirectional":true,"from_interface":"i1","from_router":"Aizkroukle","latency":39,"to_interface":"i0","to_router":"Jumprava","weight":10},{"bandwidth":100000,"bidirectional":true,"from_interface":"i0","from_router":"Vilani","latency":300,"to_interface":"i4","to_router":"Riga","weight":10},{"bandwidth":100000,"bidirectional":true,"from_interface":"i0","from_router":"Gulbene","latency":274,"to_interface":"i5","to_router":"Riga","weight":10},{"bandwidth":100000,"bidirectional":true,"from_interface":"i0","from_router":"Rujiena","latency":32,"to_interface":"i0","to_router":"Mazsalaca","weight":10},{"bandwidth":100000,"bidirectional":true,"from_interface":"i1","from_router":"Rujiena","latency":219,"to_interface":"i6","to_router":"Riga","weight":10},{"bandwidth":100000,"bidirectional":true,"from_interface":"i0","from_router":"Salagriva","latency":59,"to_interface":"i0","to_router":"Liepupe","weight":10},{"bandwidth":100000,"bidirectional":true,"from_interface":"i0","from_router":"Aloja","latency":29,"to_interface":"i1","to_router":"Mazsalaca","weight":10},{"bandwidth":100000,"bidirectional":true,"from_interface":"i1","from_router":"Aloja","latency":36,"to_interface":"i0","to_router":"Pociems","weight":10},{"bandwidth":100000,"bidirectional":true,"from_interface":"i2","from_router":"Aloja","latency":54,"to_interface":"i1","to_router":"Limbazi","weight":10},{"bandwidth":100000,"bidirectional":true,"from_interface":"i0","from_router":"Strenci","latency":35,"to_interface":"i0","to_router":"Valmiera","weight":10},{"bandwidth":100000,"bidirectional":true,"from_interface":"i2","from_router":"Limbazi","latency":126,"to_interface":"i7","to_router":"Riga","weight":10},{"bandwidth":100000,"bidirectional":true,"from_interface":"i3","from_router":"Limbazi","latency":31,"to_interface":"i1","to_router":"Liepupe","weight":10},{"bandwidth":100000,"bidirectional":true,"from_interface":"i2","from_router":"Liepupe","latency":75,"to_interface":"i1","to_router":"Sigulda","weight":10},{"bandwidth":100000,"bidirectional":true,"from_interface":"i0","from_router":"Skriveri","latency":122,"to_interface":"i8","to_router":"Riga","weight":10},{"bandwidth":100000,"bidirectional":true,"from_interface":"i1","from_router":"Valmiera","latency":177,"to_interface":"i9","to_router":"Riga","weight":10},{"bandwidth":100000,"bidirectional":true,"from_interface":"i0","from_router":"Rezekne","latency":46,"to_interface":"i0","to_router":"Ludza","weight":10},{"bandwidth":100000,"bidirectional":true,"from_interface":"i1","from_router":"Rezekne","latency":341,"to_interface":"i10","to_router":"Riga","weight":10},{"bandwidth":100000,"bidirectional":true,"from_interface":"i2","from_router":"Rezekne","latency":144,"to_interface":"i0","to_router":"Daugapils","weight":10},{"bandwidth":100000,"bidirectional":true,"from_interface":"i0","from_router":"Carnikava","latency":42,"to_interface":"i11","to_router":"Riga","weight":10},{"bandwidth":100000,"bidirectional":true,"from_interface":"i1","from_router":"Carnikava","latency":15,"to_interface":"i0","to_router":"Adazi","weight":10},{"bandwidth":100000,"bidirectional":true,"from_interface":"i1","from_router":"Jumprava","latency":23,"to_interface":"i0","to_router":"Lielvarde","weight":10},{"bandwidth":100000,"bidirectional":true,"from_interface":"i0","from_router":"Kegums","latency":14,"to_interface":"i1","to_router":"Lielvarde","weight":10},{"bandwidth":100000,"bidirectional":true,"from_interface":"i1","from_router":"Kegums","latency":33,"to_interface":"i0","to_router":"Ikskile","weight":10},{"bandwidth":100000,"bidirectional":true,"from_interface":"i12","from_router":"Riga","latency":322,"to_interface":"i1","to_router":"Daugapils","weight":10},{"bandwidth":100000,"bidirectional":true,"from_interface":"i13","from_router":"Riga","latency":328,"to_interface":"i1","to_router":"Liepaja","weight":10},{"bandwidth":100000,"bidirectional":true,"from_interface":"i14","from_router":"Riga","latency":23,"to_interface":"i0","to_router":"Ulbroka","weight":10},{"bandwidth":100000,"bidirectional":true,"from_interface":"i15","from_router":"Riga","latency":39,"to_interface":"i0","to_router":"Olaine","weight":10},{"bandwidth":100000,"bidirectional":true,"from_interface":"i16","from_router":"Riga","latency":35,"to_interface":"i0","to_router":"Salaspils","weight":10},{"bandwidth":100000,"bidirectional":true,"from_interface":"i17","from_router":"Riga","latency":105,"to_interface":"i0","to_router":"Bauska","weight":10},{"bandwidth":100000,"bidirectional":true,"from_interface":"i18","from_router":"Riga","latency":72,"to_interface":"i2","to_router":"Jelgava","weight":10},{"bandwidth":100000,"bidirectional":true,"from_interface":"i19","from_router":"Riga","latency":30,"to_interface":"i0","to_router":"Kekava","weight":10},{"bandwidth":100000,"bidirectional":true,"from_interface":"i20","from_router":"Riga","latency":91,"to_interface":"i0","to_router":"GEANT2","weight":10},{"bandwidth":100000,"bidirectional":true,"from_interface":"i21","from_router":"Riga","latency":90,"to_interface":"i2","to_router":"Sigulda","weight":10},{"bandwidth":100000,"bidirectional":true,"from_interface":"i22","from_router":"Riga","latency":39,"to_interface":"i0","to_router":"Jurmala","weight":10},{"bandwidth":100000,"bidirectional":true,"from_interface":"i23","from_router":"Riga","latency":101,"to_interface":"i0","to_router":"Tukums","weight":10},{"bandwidth":100000,"bidirectional":true,"from_interface":"i24","from_router":"Riga","latency":168,"to_interface":"i0","to_router":"Talsi","weight":10},{"bandwidth":100000,"bidirectional":true,"from_interface":"i25","from_router":"Riga","latency":262,"to_interface":"i0","to_router":"Aizpute","weight":10},{"bandwidth":100000,"bidirectional":true,"from_interface":"i26","from_router":"Riga","latency":37,"to_interface":"i1","to_router":"Adazi","weight":10},{"bandwidth":100000,"bidirectional":true,"from_interface":"i27","from_router":"Riga","latency":297,"to_interface":"i0","to_router":"Preili","weight":10},{"bandwidth":100000,"bidirectional":true,"from_interface":"i28","from_router":"Riga","latency":325,"to_interface":"i0","to_router":"Balvi","weight":10},{"bandwidth":100000,"bidirectional":true,"from_interface":"i29","from_router":"Riga","latency":368,"to_interface":"i0","to_router":"Karsava","weight":10},{"bandwidth":100000,"bidirectional":true,"from_interface":"i2","from_router":"Daugapils","latency":83,"to_interface":"i1","to_router":"Preili","weight":10},{"bandwidth":100000,"bidirectional":true,"from_interface":"i0","from_router":"Ventspits","latency":183,"to_interface":"i1","to_router":"Tukums","weight":10},{"bandwidth":100000,"bidirectional":true,"from_interface":"i0","from_router":"Grobina","latency":20,"to_interface":"i2","to_router":"Liepaja","weight":10},{"bandwidth":100000,"bidirectional":true,"from_interface":"i1","from_router":"Olaine","latency":28,"to_interface":"i0","to_router":"Ozolnieki","weight":10},{"bandwidth":100000,"bidirectional":true,"from_interface":"i1","from_router":"Ikskile","latency":16,"to_interface":"i0","to_router":"Ogre","weight":10},{"bandwidth":100000,"bidirectional":true,"from_interface":"i2","from_router":"Ikskile","latency":19,"to_interface":"i1","to_router":"Salaspils","weight":10},{"bandwidth":100000,"bidirectional":true,"from_interface":"i1","from_router":"Jekabpils","latency":47,"to_interface":"i0","to_router":"Livani","weight":10},{"bandwidth":100000,"bidirectional":true,"from_interface":"i3","from_router":"Jelgava","latency":42,"to_interface":"i0","to_router":"Kalnciems","weight":10},{"bandwidth":100000,"bidirectional":true,"from_interface":"i4","from_router":"Jelgava","latency":27,"to_interface":"i0","to_router":"Livberze","weight":10},{"bandwidth":100000,"bidirectional":true,"from_interface":"i5","from_router":"Jelgava","latency":15,"to_interface":"i1","to_router":"Ozolnieki","weight":10},{"bandwidth":100000,"bidirectional":true,"from_interface":"i0","from_router":"Ledurga","latency":38,"to_interface":"i3","to_router":"Sigulda","weight":10},{"bandwidth":100000,"bidirectional":true,"from_interface":"i4","from_router":"Sigulda","latency":21,"to_interface":"i0","to_router":"Ragona","weight":10},{"bandwidth":100000,"bidirectional":true,"from_interface":"i5","from_router":"Sigulda","latency":38,"to_interface":"i0","to_router":"Vangazi","weight":10},{"bandwidth":100000,"bidirectional":true,"from_interface":"i1","from_router":"Karsava","latency":8,"to_interface":"i0","to_router":"Malnava","weight":10},{"bandwidth":100000,"bidirectional":true,"from_interface":"i1","from_router":"Malnava","latency":31,"to_interface":"i0","to_router":"Pusmucova","weight":10},{"bandwidth":100000,"bidirectional":true,"from_interface":"i0","from_router":"Zvigzdene","latency":10,"to_interface":"i1","to_router":"Ludza","weight":10},{"bandwidth":100000,"bidirectional":true,"from_interface":"i2","from_router":"Ludza","latency":22,"to_interface":"i0","to_router":"Cibla","weight":10},{"bandwidth":100000,"bidirectional":true,"from_interface":"i3","from_router":"Ludza","latency":56,"to_interface":"i0","to_router":"Zilupe","weight":10}],"name":"Latnet","routers":[{"interfaces":[{"names":["i0"],"routing_table":{}}],"location":{"latitude":56.59861,"longitude":24.20222},"name":"Iecava"},{"interfaces":[{"names":["i0"],"routing_table":{}}],"location":{"latitude":56.55972,"longitude":23.77194},"name":"Vircava"},{"interfaces":[{"names":["i0"],"routing_table":{}}],"location":{"latitude":55.89514,"longitude":27.16799},"name":"Kraslava"},{"interfaces":[{"names":["i0"],"routing_table":{}}],"location":{"latitude":56.70694,"longitude":24.35194},"name":"Baldone"},{"interfaces":[{"names":["i0"],"routing_table":{}}],"location":{"latitude":56.45981,"longitude":22.90169},"name":"Auce"},{"interfaces":[{"names":["i0"],"routing_table":{}}],"location":{"latitude":56.7,"longitude":22.53333},"name":"Broceni"},{"interfaces":[{"names":["i0","i1","i2"],"routing_table":{}}],"location":{"latitude":56.53722,"longitude":23.69639},"name":"Platone"},{"interfaces":[{"names":["i0","i1"],"routing_table":{}}],"location":{"latitude":56.625,"longitude":23.27861},"name":"Dobele"},{"interfaces":[{"names":["i0"],"routing_table":{}}],"location":{"latitude":57.15861,"longitude":24.70278},"name":"Krimulda"},{"interfaces":[{"names":["i0"],"routing_table":{}}],"location":{"latitude":57.60861,"longitude":24.60722},"name":"Vijkene"},{"interfaces":[{"names":["i0","i1"],"routing_table":{}}],"location":{"latitude":56.66363,"longitude":22.48807},"name":"Saldus"},{"interfaces":[{"names":["i0"],"routing_table":{}}],"location":{"latitude":56.59,"longitude":21.13862},"name":"Kapsede"},{"interfaces":[{"names":["i0","i1"],"routing_table":{}}],"location":{"latitude":56.34751,"longitude":25.55514},"name":"Viesite"},{"interfaces":[{"names":["i0","i1"],"routing_table":{}}],"location":{"latitude":56.60477,"longitude":25.25534},"name":"Aizkroukle"},{"interfaces":[{"names":["i0"],"routing_table":{}}],"location":{"latitude":56.55253,"longitude":26.92449},"name":"Vilani"},{"interfaces":[{"names":["i0"],"routing_table":{}}],"location":{"latitude":57.17767,"longitude":26.75291},"name":"Gulbene"},{"interfaces":[{"names":["i0","i1"],"routing_table":{}}],"location":{"latitude":57.89752,"longitude":25.33155},"name":"Rujiena"},{"interfaces":[{"names":["i0"],"routing_table":{}}],"location":{"latitude":57.75361,"longitude":24.35806},"name":"Salagriva"},{"interfaces":[{"names":["i0","i1","i2"],"routing_table":{}}],"location":{"latitude":57.76694,"longitude":24.8825},"name":"Aloja"},{"interfaces":[{"names":["i0","i1"],"routing_table":{}}],"location":{"latitude":57.86329,"longitude":25.05475},"name":"Mazsalaca"},{"interfaces":[{"names":["i0"],"routing_table":{}}],"location":{"latitude":57.62574,"longitude":25.68535},"name":"Strenci"},{"interfaces":[{"names":["i0"],"routing_table":{}}],"location":{"latitude":57.59639,"longitude":24.85139},"name":"Pociems"},{"interfaces":[{"names":["i0","i1","i2","i3"],"routing_table":{}}],"location":{"latitude":57.51287,"longitude":24.71941},"name":"Limbazi"},{"interfaces":[{"names":["i0","i1","i2"],"routing_table":{}}],"location":{"latitude":57.46389,"longitude":24.46778},"name":"Liepupe"},{"interfaces":[{"names":["i0"],"routing_table":{}}],"location":{"latitude":56.645,"longitude":25.12058},"name":"Skriveri"},{"interfaces":[{"names":["i0","i1"],"routing_table":{}}],"location":{"latitude":57.54108,"longitude":25.42751},"name":"Valmiera"},{"interfaces":[{"names":["i0","i1","i2"],"routing_table":{}}],"location":{"latitude":56.5,"longitude":27.31667},"name":"Rezekne"},{"interfaces":[{"names":["i0","i1"],"routing_table":{}}],"location":{"latitude":57.12944,"longitude":24.27444},"name":"Carnikava"},{"interfaces":[{"names":["i0","i1"],"routing_table":{}}],"location":{"latitude":56.6425,"longitude":24.92056},"name":"Jumprava"},{"interfaces":[{"names":["i0","i1"],"routing_table":{}}],"location":{"latitude":56.7451,"longitude":24.72439},"name":"Kegums"},{"interfaces":[{"names":["i0","i1","i2","i3","i4","i5","i6","i7","i8","i9","i10","i11","i12","i13","i14","i15","i16","i17","i18","i19","i20","i21","i22","i23","i24","i25","i26","i27","i28","i29"],"routing_table":{}}],"location":{"latitude":56.946,"longitude":24.10589},"name":"Riga"},{"interfaces":[{"names":["i0","i1","i2"],"routing_table":{}}],"location":{"latitude":55.88333,"longitude":26.53333},"name":"Daugapils"},{"interfaces":[{"names":["i0"],"routing_table":{}}],"location":{"latitude":57.38944,"longitude":21.56056},"name":"Ventspits"},{"interfaces":[{"names":["i0"],"routing_table":{}}],"location":{"latitude":56.53521,"longitude":21.16782},"name":"Grobina"},{"interfaces":[{"names":["i0","i1","i2"],"routing_table":{}}],"location":{"latitude":56.51667,"longitude":21.01667},"name":"Liepaja"},{"interfaces":[{"names":["i0"],"routing_table":{}}],"location":{"latitude":56.94111,"longitude":24.28972},"name":"Ulbroka"},{"interfaces":[{"names":["i0","i1"],"routing_table":{}}],"location":{"latitude":56.78528,"longitude":23.93806},"name":"Olaine"},{"interfaces":[{"names":["i0","i1"],"routing_table":{}}],"location":{"latitude":56.72066,"longitude":24.80743},"name":"Lielvarde"},{"interfaces":[{"names":["i0","i1","i2"],"routing_table":{}}],"location":{"latitude":56.83333,"longitude":24.5},"name":"Ikskile"},{"interfaces":[{"names":["i0","i1"],"routing_table":{}}],"location":{"latitude":56.86014,"longitude":24.36544},"name":"Salaspils"},{"interfaces":[{"names":["i0"],"routing_table":{}}],"location":{"latitude":56.4075,"longitude":24.19056},"name":"Bauska"},{"interfaces":[{"names":["i0","i1"],"routing_table":{}}],"location":{"latitude":56.49903,"longitude":25.85735},"name":"Jekabpils"},{"interfaces":[{"names":["i0","i1","i2","i3","i4","i5"],"routing_table":{}}],"location":{"latitude":56.65,"longitude":23.71278},"name":"Jelgava"},{"interfaces":[{"names":["i0"],"routing_table":{}}],"location":{"latitude":56.83991,"longitude":23.58902},"name":"Kalnciems"},{"interfaces":[{"names":["i0"],"routing_table":{}}],"location":{"latitude":56.82662,"longitude":24.23},"name":"Kekava"},{"interfaces":[{"names":["i0"],"routing_table":{}}],"name":"GEANT2"},{"interfaces":[{"names":["i0"],"routing_table":{}}],"location":{"latitude":56.68833,"longitude":23.5},"name":"Livberze"},{"interfaces":[{"names":["i0"],"routing_table":{}}],"location":{"latitude":57.3224,"longitude":24.74301},"name":"Ledurga"},{"interfaces":[{"names":["i0","i1","i2","i3","i4","i5"],"routing_table":{}}],"location":{"latitude":57.15194,"longitude":24.86472},"name":"Sigulda"},{"interfaces":[{"names":["i0"],"routing_table":{}}],"location":{"latitude":56.968,"longitude":23.77038},"name":"Jurmala"},{"interfaces":[{"names":["i0","i1"],"routing_table":{}}],"location":{"latitude":56.96694,"longitude":23.15528},"name":"Tukums"},{"interfaces":[{"names":["i0"],"routing_table":{}}],"location":{"latitude":57.24562,"longitude":22.58137},"name":"Talsi"},{"interfaces":[{"names":["i0"],"routing_table":{}}],"location":{"latitude":56.71667,"longitude":21.6},"name":"Aizpute"},{"interfaces":[{"names":["i0"],"routing_table":{}}],"location":{"latitude":57.18074,"longitude":24.70731},"name":"Ragona"},{"interfaces":[{"names":["i0"],"routing_table":{}}],"location":{"latitude":57.09361,"longitude":24.54861},"name":"Vangazi"},{"interfaces":[{"names":["i0","i1"],"routing_table":{}}],"location":{"latitude":57.07583,"longitude":24.32139},"name":"Adazi"},{"interfaces":[{"names":["i0","i1"],"routing_table":{}}],"location":{"latitude":56.68639,"longitude":23.78778},"name":"Ozolnieki"},{"interfaces":[{"names":["i0"],"routing_table":{}}],"location":{"latitude":56.41588,"longitude":23.68335},"name":"Eleja"},{"interfaces":[{"names":["i0"],"routing_table":{}}],"location":{"latitude":56.8162,"longitude":24.61401},"name":"Ogre"},{"interfaces":[{"names":["i0","i1"],"routing_table":{}}],"location":{"latitude":56.29444,"longitude":26.72459},"name":"Preili"},{"interfaces":[{"names":["i0"],"routing_table":{}}],"location":{"latitude":56.35431,"longitude":26.17579},"name":"Livani"},{"interfaces":[{"names":["i0"],"routing_table":{}}],"location":{"latitude":57.1313,"longitude":27.26583},"name":"Balvi"},{"interfaces":[{"names":["i0","i1"],"routing_table":{}}],"location":{"latitude":56.78405,"longitude":27.68829},"name":"Karsava"},{"interfaces":[{"names":["i0","i1"],"routing_table":{}}],"location":{"latitude":56.77535,"longitude":27.71902},"name":"Malnava"},{"interfaces":[{"names":["i0"],"routing_table":{}}],"location":{"latitude":56.63333,"longitude":27.71667},"name":"Pusmucova"},{"interfaces":[{"names":["i0"],"routing_table":{}}],"location":{"latitude":56.56667,"longitude":27.66667},"name":"Zvigzdene"},{"interfaces":[{"names":["i0","i1","i2","i3"],"routing_table":{}}],"location":{"latitude":56.55,"longitude":27.71667},"name":"Ludza"},{"interfaces":[{"names":["i0"],"routing_table":{}}],"location":{"latitude":56.55,"longitude":27.88333},"name":"Cibla"},{"interfaces":[{"names":["i0"],"routing_table":{}}],"location":{"latitude":56.38616,"longitude":28.12165},"name":"Zilupe"}]}}
