{"network":{"links":[{"bandwidth":1000000,"bidirectional":true,"from_interface":"i0","from_router":"New_York","latency":583,"to_interface":"i0","to_router":"Amsterdam","weight":10},{"bandwidth":1000000,"bidirectional":true,"from_interface":"i0","from_router":"London","latency":599,"to_interface":"i1","to_router":"Amsterdam","weight":10},{"bandwidth":1000000,"bidirectional":true,"from_interface":"i0","from_router":"Stockholm","latency":1150,"to_interface":"i0","to_router":"St_Petersburg","weight":10},{"bandwidth":1000000,"bidirectional":true,"from_interface":"i1","from_router":"Stockholm","latency":1879,"to_interface":"i2","to_router":"Amsterdam","weight":10},{"bandwidth":1000000,"bidirectional":true,"from_interface":"i1","from_router":"St_Petersburg","latency":1059,"to_interface":"i0","to_router":"Moscow","weight":10},{"bandwidth":1000000,"bidirectional":true,"from_interface":"i3","from_router":"Amsterdam","latency":611,"to_interface":"i0","to_router":"Frankfurt","weight":10},{"bandwidth":1000000,"bidirectional":true,"from_interface":"i4","from_router":"Amsterdam","latency":721,"to_interface":"i0","to_router":"Paris","weight":10}],"name":"Gblnet","routers":[{"interfaces":[{"names":["i0"],"routing_table":{}}],"location":{"latitude":53.07897,"longitude":-0.14008},"name":"New_York"},{"interfaces":[{"names":["i0"],"routing_table":{}}],"location":{"latitude":51.50853,"longitude":-0.12574},"name":"London"},{"interfaces":[{"names":["i0","i1"],"routing_table":{}}],"location":{"latitude":59.33258,"longitude":18.0649},"name":"Stockholm"},{"interfaces":[{"names":["i0","i1"],"routing_table":{}}],"location":{"latitude":59.89444,"longitude":30.26417},"name":"St_Petersburg"},{"interfaces":[{"names":["i0"],"routing_table":{}}],"location":{"latitude":55.75222,"longitude":37.61556},"name":"Moscow"},{"interfaces":[{"names":["i0","i1","i2","i3","i4"],"routing_table":{}}],"location":{"latitude":52.37403,"longitude":4.88969},"name":"Amsterdam"},{"interfaces":[{"names":["i0"],"routing_table":{}}],"location":{"latitude":50.11667,"longitude":8.68333},"name":"Frankfurt"},{"interfaces":[{"names":["i0"],"routing_table":{}}],"location":{"latitude":48.85341,"longitude":2.3488},"name":"Paris"}]}}
