{"network":{"links":[{"bandwidth":1000000,"bidirectional":true,"from_interface":"i0","from_router":"Magdeburg","latency":134,"to_interface":"i0","to_router":"Brunswick","weight":10},{"bandwidth":1000000,"bidirectional":true,"from_interface":"i1","from_router":"Magdeburg","latency":213,"to_interface":"i0","to_router":"Berlin","weight":10},{"bandwidth":1000000,"bidirectional":true,"from_interface":"i1","from_router":"Brunswick","latency":97,"to_interface":"i0","to_router":"Hanover","weight":10},{"bandwidth":1000000,"bidirectional":true,"from_interface":"i0","from_router":"Rostock","latency":125,"to_interface":"i0","to_router":"Copenhagen","weight":10},{"bandwidth":1000000,"bidirectional":true,"from_interface":"i1","from_router":"Rostock","latency":125,"to_interface":"i0","to_router":"None","weight":10},{"bandwidth":1000000,"bidirectional":true,"from_interface":"i1","from_router":"Berlin","latency":125,"to_interface":"i1","to_router":"None","weight":10},{"bandwidth":1000000,"bidirectional":true,"from_interface":"i2","from_router":"Berlin","latency":280,"to_interface":"i0","to_router":"Dresden","weight":10},{"bandwidth":1000000,"bidirectional":true,"from_interface":"i0","from_router":"Leipzig","latency":172,"to_interface":"i1","to_router":"Dresden","weight":10},{"bandwidth":1000000,"bidirectional":true,"from_interface":"i1","from_router":"Leipzig","latency":173,"to_interface":"i0","to_router":"Erfurt","weight":10},{"bandwidth":1000000,"bidirectional":true,"from_interface":"i1","from_router":"Erfurt","latency":137,"to_interface":"i0","to_router":"Coburg","weight":10},{"bandwidth":1000000,"bidirectional":true,"from_interface":"i1","from_router":"Coburg","latency":157,"to_interface":"i0","to_router":"Nuremberg","weight":10},{"bandwidth":1000000,"bidirectional":true,"from_interface":"i1","from_router":"Nuremberg","latency":125,"to_interface":"i0","to_router":"Prague","weight":10},{"bandwidth":1000000,"bidirectional":true,"from_interface":"i2","from_router":"Nuremberg","latency":138,"to_interface":"i0","to_router":"Ingolstadt","weight":10},{"bandwidth":1000000,"bidirectional":true,"from_interface":"i3","from_router":"Nuremberg","latency":154,"to_interface":"i0","to_router":"Wurzburg","weight":10},{"bandwidth":1000000,"bidirectional":true,"from_interface":"i1","from_router":"Prague","latency":125,"to_interface":"i0","to_router":"Brno","weight":10},{"bandwidth":1000000,"bidirectional":true,"from_interface":"i0","from_router":"Stockholm","latency":125,"to_interface":"i1","to_router":"Copenhagen","weight":10},{"bandwidth":1000000,"bidirectional":true,"from_interface":"i2","from_router":"None","latency":125,"to_interface":"i0","to_router":"Hamburg","weight":10},{"bandwidth":1000000,"bidirectional":true,"from_interface":"i0","from_router":"Duren","latency":90,"to_interface":"i0","to_router":"Dusseldorf","weight":10},{"bandwidth":1000000,"bidirectional":true,"from_interface":"i1","from_router":"Dusseldorf","latency":55,"to_interface":"i0","to_router":"Essen","weight":10},{"bandwidth":1000000,"bidirectional":true,"from_interface":"i2","from_router":"Dusseldorf","latency":60,"to_interface":"i0","to_router":"Amsterdam","weight":10},{"bandwidth":1000000,"bidirectional":true,"from_interface":"i3","from_router":"Dusseldorf","latency":120,"to_interface":"i0","to_router":"Aachen","weight":10},{"bandwidth":1000000,"bidirectional":true,"from_interface":"i4","from_router":"Dusseldorf","latency":62,"to_interface":"i0","to_router":"Cologne","weight":10},{"bandwidth":1000000,"bidirectional":true,"from_interface":"i1","from_router":"Cologne","latency":45,"to_interface":"i0","to_router":"Bonn","weight":10},{"bandwidth":1000000,"bidirectional":true,"from_interface":"i1","from_router":"Bonn","latency":223,"to_interface":"i0","to_router":"Frankfurt","weight":10},{"bandwidth":1000000,"bidirectional":true,"from_interface":"i1","from_router":"Essen","latency":56,"to_interface":"i0","to_router":"Dortmund","weight":10},{"bandwidth":1000000,"bidirectional":true,"from_interface":"i1","from_router":"Brno","latency":125,"to_interface":"i0","to_router":"Bratislava","weight":10},{"bandwidth":1000000,"bidirectional":true,"from_interface":"i0","from_router":"Vienna","latency":125,"to_interface":"i1","to_router":"Bratislava","weight":10},{"bandwidth":1000000,"bidirectional":true,"from_interface":"i1","from_router":"Vienna","latency":125,"to_interface":"i0","to_router":"Munich","weight":10},{"bandwidth":1000000,"bidirectional":true,"from_interface":"i0","from_router":"Paris","latency":8,"to_interface":"i1","to_router":"Frankfurt","weight":10},{"bandwidth":1000000,"bidirectional":true,"from_interface":"i0","from_router":"Augsburg","latency":227,"to_interface":"i0","to_router":"Stuttgart","weight":10},{"bandwidth":1000000,"bidirectional":true,"from_interface":"i1","from_router":"Augsburg","latency":100,"to_interface":"i1","to_router":"Munich","weight":10},{"bandwidth":1000000,"bidirectional":true,"from_interface":"i0","from_router":"London","latency":125,"to_interface":"i1","to_router":"Amsterdam","weight":10},{"bandwidth":1000000,"bidirectional":true,"from_interface":"i0","from_router":"Karlsruhe","latency":109,"to_interface":"i1","to_router":"Stuttgart","weight":10},{"bandwidth":1000000,"bidirectional":true,"from_interface":"i1","from_router":"Karlsruhe","latency":95,"to_interface":"i0","to_router":"Mannheim","weight":10},{"bandwidth":1000000,"bidirectional":true,"from_interface":"i1","from_router":"Ingolstadt","latency":122,"to_interface":"i2","to_router":"Munich","weight":10},{"bandwidth":1000000,"bidirectional":true,"from_interface":"i0","from_router":"Zurich","latency":125,"to_interface":"i2","to_router":"Frankfurt","weight":10},{"bandwidth":1000000,"bidirectional":true,"from_interface":"i1","from_router":"Wurzburg","latency":166,"to_interface":"i3","to_router":"Frankfurt","weight":10},{"bandwidth":1000000,"bidirectional":true,"from_interface":"i4","from_router":"Frankfurt","latency":124,"to_interface":"i1","to_router":"Mannheim","weight":10},{"bandwidth":1000000,"bidirectional":true,"from_interface":"i0","from_router":"Kiel","latency":125,"to_interface":"i2","to_router":"Copenhagen","weight":10},{"bandwidth":1000000,"bidirectional":true,"from_interface":"i1","from_router":"Kiel","latency":148,"to_interface":"i1","to_router":"Hamburg","weight":10},{"bandwidth":1000000,"bidirectional":true,"from_interface":"i1","from_router":"Dortmund","latency":133,"to_interface":"i0","to_router":"Gutersloh","weight":10},{"bandwidth":1000000,"bidirectional":true,"from_interface":"i1","from_router":"Gutersloh","latency":35,"to_interface":"i0","to_router":"Bielefeld","weight":10},{"bandwidth":1000000,"bidirectional":true,"from_interface":"i1","from_router":"Bielefeld","latency":30,"to_interface":"i0","to_router":"Hertford","weight":10},{"bandwidth":1000000,"bidirectional":true,"from_interface":"i1","from_router":"Hertford","latency":131,"to_interface":"i1","to_router":"Hanover","weight":10},{"bandwidth":1000000,"bidirectional":true,"from_interface":"i0","from_router":"Bremen","latency":171,"to_interface":"i2","to_router":"Hanover","weight":10},{"bandwidth":1000000,"bidirectional":true,"from_interface":"i1","from_router":"Bremen","latency":163,"to_interface":"i2","to_router":"Hamburg","weight":10}],"name":"LambdaNet","routers":[{"interfaces":[{"names":["i0","i1"],"routing_table":{}}],"location":{"latitude":52.16667,"longitude":11.66667},"name":"Magdeburg"},{"interfaces":[{"names":["i0","i1"],"routing_table":{}}],"location":{"latitude":52.26667,"longitude":10.53333},"name":"Brunswick"},{"interfaces":[{"names":["i0","i1"],"routing_table":{}}],"location":{"latitude":54.0887,"longitude":12.14049},"name":"Rostock"},{"interfaces":[{"names":["i0","i1","i2"],"routing_table":{}}],"location":{"latitude":52.52437,"longitude":13.41053},"name":"Berlin"},{"interfaces":[{"names":["i0","i1"],"routing_table":{}}],"location":{"latitude":51.33962,"longitude":12.37129},"name":"Leipzig"},{"interfaces":[{"names":["i0","i1"],"routing_table":{}}],"location":{"latitude":51.05089,"longitude":13.73832},"name":"Dresden"},{"interfaces":[{"names":["i0","i1"],"routing_table":{}}],"location":{"latitude":50.98333,"longitude":11.03333},"name":"Erfurt"},{"interfaces":[{"names":["i0","i1"],"routing_table":{}}],"location":{"latitude":50.26667,"longitude":10.96667},"name":"Coburg"},{"interfaces":[{"names":["i0","i1","i2","i3"],"routing_table":{}}],"location":{"latitude":49.44778,"longitude":11.06833},"name":"Nuremberg"},{"interfaces":[{"names":["i0","i1"],"routing_table":{}}],"name":"Prague"},{"interfaces":[{"names":["i0"],"routing_table":{}}],"name":"Stockholm"},{"interfaces":[{"names":["i0","i1","i2"],"routing_table":{}}],"name":"None"},{"interfaces":[{"names":["i0"],"routing_table":{}}],"location":{"latitude":50.8,"longitude":6.48333},"name":"Duren"},{"interfaces":[{"names":["i0","i1","i2","i3","i4"],"routing_table":{}}],"location":{"latitude":51.22172,"longitude":6.77616},"name":"Dusseldorf"},{"interfaces":[{"names":["i0","i1"],"routing_table":{}}],"location":{"latitude":50.93333,"longitude":6.95},"name":"Cologne"},{"interfaces":[{"names":["i0","i1"],"routing_table":{}}],"location":{"latitude":50.73333,"longitude":7.1},"name":"Bonn"},{"interfaces":[{"names":["i0","i1"],"routing_table":{}}],"location":{"latitude":51.45,"longitude":7.01667},"name":"Essen"},{"interfaces":[{"names":["i0","i1"],"routing_table":{}}],"name":"Brno"},{"interfaces":[{"names":["i0","i1"],"routing_table":{}}],"name":"Vienna"},{"interfaces":[{"names":["i0","i1"],"routing_table":{}}],"name":"Bratislava"},{"interfaces":[{"names":["i0"],"routing_table":{}}],"location":{"latitude":50.104,"longitude":8.66432},"name":"Paris"},{"interfaces":[{"names":["i0","i1"],"routing_table":{}}],"location":{"latitude":48.36667,"longitude":10.88333},"name":"Augsburg"},{"interfaces":[{"names":["i0"],"routing_table":{}}],"location":{"latitude":50.77664,"longitude":6.08342},"name":"Aachen"},{"interfaces":[{"names":["i0"],"routing_table":{}}],"name":"London"},{"interfaces":[{"names":["i0","i1"],"routing_table":{}}],"location":{"latitude":49.00472,"longitude":8.38583},"name":"Karlsruhe"},{"interfaces":[{"names":["i0","i1"],"routing_table":{}}],"location":{"latitude":48.78232,"longitude":9.17702},"name":"Stuttgart"},{"interfaces":[{"names":["i0","i1"],"routing_table":{}}],"location":{"latitude":48.76667,"longitude":11.43333},"name":"Ingolstadt"},{"interfaces":[{"names":["i0","i1","i2"],"routing_table":{}}],"location":{"latitude":48.13743,"longitude":11.57549},"name":"Munich"},{"interfaces":[{"names":["i0"],"routing_table":{}}],"name":"Zurich"},{"interfaces":[{"names":["i0","i1"],"routing_table":{}}],"location":{"latitude":49.78778,"longitude":9.93611},"name":"Wurzburg"},{"interfaces":[{"names":["i0","i1","i2","i3","i4"],"routing_table":{}}],"location":{"latitude":50.11667,"longitude":8.68333},"name":"Frankfurt"},{"interfaces":[{"names":["i0","i1"],"routing_table":{}}],"location":{"latitude":49.48833,"longitude":8.46472},"name":"Mannheim"},{"interfaces":[{"names":["i0","i1"],"routing_table":{}}],"location":{"latitude":54.32133,"longitude":10.13489},"name":"Kiel"},{"interfaces":[{"names":["i0","i1","i2"],"routing_table":{}}],"name":"Copenhagen"},{"interfaces":[{"names":["i0","i1"],"routing_table":{}}],"location":{"latitude":50.9449,"longitude":6.9553},"name":"Amsterdam"},{"interfaces":[{"names":["i0","i1"],"routing_table":{}}],"location":{"latitude":51.51667,"longitude":7.45},"name":"Dortmund"},{"interfaces":[{"names":["i0","i1"],"routing_table":{}}],"location":{"latitude":51.9,"longitude":8.38333},"name":"Gutersloh"},{"interfaces":[{"names":["i0","i1"],"routing_table":{}}],"location":{"latitude":52.03333,"longitude":8.53333},"name":"Bielefeld"},{"interfaces":[{"names":["i0","i1"],"routing_table":{}}],"location":{"latitude":52.13333,"longitude":8.68333},"name":"Hertford"},{"interfaces":[{"names":["i0","i1"],"routing_table":{}}],"location":{"latitude":53.07516,"longitude":8.80777},"name":"Bremen"},{"interfaces":[{"names":["i0","i1","i2"],"routing_table":{}}],"location":{"latitude":52.37052,"longitude":9.73322},"name":"Hanover"},{"interfaces":[{"names":["i0","i1","i2"],"routing_table":{}}],"location":{"latitude":53.55,"longitude":10.0},"name":"Hamburg"}]}}
