{"network":{"links":[{"bandwidth":125000,"bidirectional":true,"from_interface":"i0","from_router":"Gullin","latency":570,"to_interface":"i0","to_router":"Nanning","weight":200},{"bandwidth":155000,"bidirectional":true,"from_interface":"i1","from_router":"Gullin","latency":646,"to_interface":"i0","to_router":"Guangzhou","weight":161},{"bandwidth":155000,"bidirectional":true,"from_interface":"i0","from_router":"Kunming","latency":2393,"to_interface":"i0","to_router":"Chengdou","weight":161},{"bandwidth":125000,"bidirectional":true,"from_interface":"i1","from_router":"Kunming","latency":730,"to_interface":"i0","to_router":"Guiyang","weight":200},{"bandwidth":155000,"bidirectional":true,"from_interface":"i0","from_router":"Chongqing","latency":1255,"to_interface":"i0","to_router":"Wuhan","weight":161},{"bandwidth":2500000,"bidirectional":true,"from_interface":"i1","from_router":"Chongqing","latency":1857,"to_interface":"i1","to_router":"Chengdou","weight":10},{"bandwidth":155000,"bidirectional":true,"from_interface":"i1","from_router":"Guiyang","latency":1718,"to_interface":"i2","to_router":"Chengdou","weight":161},{"bandwidth":125000,"bidirectional":true,"from_interface":"i0","from_router":"Haikou","latency":797,"to_interface":"i0","to_router":"Shenzhen","weight":200},{"bandwidth":155000,"bidirectional":true,"from_interface":"i1","from_router":"Haikou","latency":762,"to_interface":"i1","to_router":"Guangzhou","weight":161},{"bandwidth":858396,"bidirectional":true,"from_interface":"i0","from_router":"Xianggang","latency":3114,"to_interface":"i0","to_router":"Beijing","weight":29},{"bandwidth":155000,"bidirectional":true,"from_interface":"i1","from_router":"Nanning","latency":847,"to_interface":"i2","to_router":"Guangzhou","weight":161},{"bandwidth":155000,"bidirectional":true,"from_interface":"i3","from_router":"Guangzhou","latency":180,"to_interface":"i1","to_router":"Shenzhen","weight":161},{"bandwidth":155000,"bidirectional":true,"from_interface":"i4","from_router":"Guangzhou","latency":861,"to_interface":"i0","to_router":"Xiemen","weight":161},{"bandwidth":2500000,"bidirectional":true,"from_interface":"i5","from_router":"Guangzhou","latency":1397,"to_interface":"i1","to_router":"Wuhan","weight":10},{"bandwidth":2500000,"bidirectional":true,"from_interface":"i6","from_router":"Guangzhou","latency":947,"to_interface":"i0","to_router":"Changsha","weight":10},{"bandwidth":155000,"bidirectional":true,"from_interface":"i7","from_router":"Guangzhou","latency":2023,"to_interface":"i0","to_router":"Shanghai","weight":161},{"bandwidth":155000,"bidirectional":true,"from_interface":"i1","from_router":"Xiemen","latency":362,"to_interface":"i0","to_router":"Fuzhou","weight":161},{"bandwidth":858396,"bidirectional":true,"from_interface":"i0","from_router":"Japan","latency":1152,"to_interface":"i1","to_router":"Beijing","weight":29},{"bandwidth":858396,"bidirectional":true,"from_interface":"i0","from_router":"Europe","latency":1152,"to_interface":"i2","to_router":"Beijing","weight":29},{"bandwidth":125000,"bidirectional":true,"from_interface":"i0","from_router":"Shijiazhuang","latency":946,"to_interface":"i0","to_router":"Qingdao","weight":200},{"bandwidth":155000,"bidirectional":true,"from_interface":"i1","from_router":"Shijiazhuang","latency":1289,"to_interface":"i0","to_router":"Nanjing","weight":161},{"bandwidth":2500000,"bidirectional":true,"from_interface":"i2","from_router":"Shijiazhuang","latency":445,"to_interface":"i0","to_router":"Tianjing","weight":10},{"bandwidth":858396,"bidirectional":true,"from_interface":"i1","from_router":"Tianjing","latency":185,"to_interface":"i3","to_router":"Beijing","weight":29},{"bandwidth":2500000,"bidirectional":true,"from_interface":"i0","from_router":"Dalian","latency":597,"to_interface":"i0","to_router":"Shenyang","weight":10},{"bandwidth":2500000,"bidirectional":true,"from_interface":"i1","from_router":"Shenyang","latency":854,"to_interface":"i0","to_router":"Harbin","weight":10},{"bandwidth":2500000,"bidirectional":true,"from_interface":"i2","from_router":"Shenyang","latency":469,"to_interface":"i0","to_router":"Chanchun","weight":10},{"bandwidth":2500000,"bidirectional":true,"from_interface":"i3","from_router":"Shenyang","latency":1050,"to_interface":"i4","to_router":"Beijing","weight":10},{"bandwidth":155000,"bidirectional":true,"from_interface":"i4","from_router":"Shenyang","latency":1984,"to_interface":"i1","to_router":"Shanghai","weight":161},{"bandwidth":858396,"bidirectional":true,"from_interface":"i0","from_router":"N.A","latency":1152,"to_interface":"i5","to_router":"Beijing","weight":29},{"bandwidth":858396,"bidirectional":true,"from_interface":"i0","from_router":"Korea","latency":1152,"to_interface":"i6","to_router":"Beijing","weight":29},{"bandwidth":2500000,"bidirectional":true,"from_interface":"i0","from_router":"Hefei","latency":537,"to_interface":"i2","to_router":"Wuhan","weight":10},{"bandwidth":155000,"bidirectional":true,"from_interface":"i1","from_router":"Hefei","latency":243,"to_interface":"i1","to_router":"Nanjing","weight":161},{"bandwidth":155000,"bidirectional":true,"from_interface":"i7","from_router":"Beijing","latency":4275,"to_interface":"i0","to_router":"Lasa","weight":161},{"bandwidth":155000,"bidirectional":true,"from_interface":"i8","from_router":"Beijing","latency":695,"to_interface":"i0","to_router":"Hohhot","weight":161},{"bandwidth":155000,"bidirectional":true,"from_interface":"i9","from_router":"Beijing","latency":674,"to_interface":"i0","to_router":"Taiyuan","weight":161},{"bandwidth":155000,"bidirectional":true,"from_interface":"i10","from_router":"Beijing","latency":447,"to_interface":"i0","to_router":"Shijiazhuang2","weight":161},{"bandwidth":125000,"bidirectional":true,"from_interface":"i11","from_router":"Beijing","latency":2085,"to_interface":"i0","to_router":"Nanchang","weight":200},{"bandwidth":2500000,"bidirectional":true,"from_interface":"i12","from_router":"Beijing","latency":1761,"to_interface":"i3","to_router":"Wuhan","weight":10},{"bandwidth":2500000,"bidirectional":true,"from_interface":"i13","from_router":"Beijing","latency":1040,"to_interface":"i0","to_router":"Zhengzhou","weight":10},{"bandwidth":2500000,"bidirectional":true,"from_interface":"i14","from_router":"Beijing","latency":1500,"to_interface":"i2","to_router":"Nanjing","weight":10},{"bandwidth":155000,"bidirectional":true,"from_interface":"i15","from_router":"Beijing","latency":1524,"to_interface":"i0","to_router":"Xi'an","weight":161},{"bandwidth":155000,"bidirectional":true,"from_interface":"i16","from_router":"Beijing","latency":1524,"to_interface":"i1","to_router":"Xi'an","weight":161},{"bandwidth":155000,"bidirectional":true,"from_interface":"i1","from_router":"Nanchang","latency":1015,"to_interface":"i2","to_router":"Shanghai","weight":161},{"bandwidth":2500000,"bidirectional":true,"from_interface":"i4","from_router":"Wuhan","latency":1010,"to_interface":"i3","to_router":"Chengdou","weight":10},{"bandwidth":155000,"bidirectional":true,"from_interface":"i5","from_router":"Wuhan","latency":493,"to_interface":"i1","to_router":"Changsha","weight":161},{"bandwidth":2500000,"bidirectional":true,"from_interface":"i6","from_router":"Wuhan","latency":769,"to_interface":"i3","to_router":"Nanjing","weight":10},{"bandwidth":155000,"bidirectional":true,"from_interface":"i7","from_router":"Wuhan","latency":784,"to_interface":"i1","to_router":"Zhengzhou","weight":161},{"bandwidth":155000,"bidirectional":true,"from_interface":"i1","from_router":"Fuzhou","latency":1022,"to_interface":"i3","to_router":"Shanghai","weight":161},{"bandwidth":155000,"bidirectional":true,"from_interface":"i1","from_router":"Qingdao","latency":791,"to_interface":"i4","to_router":"Nanjing","weight":161},{"bandwidth":2500000,"bidirectional":true,"from_interface":"i5","from_router":"Nanjing","latency":455,"to_interface":"i4","to_router":"Shanghai","weight":10},{"bandwidth":2500000,"bidirectional":true,"from_interface":"i5","from_router":"Shanghai","latency":277,"to_interface":"i0","to_router":"Hangzhou","weight":10},{"bandwidth":155000,"bidirectional":true,"from_interface":"i4","from_router":"Chengdou","latency":2046,"to_interface":"i2","to_router":"Xi'an","weight":161},{"bandwidth":155000,"bidirectional":true,"from_interface":"i0","from_router":"Urumchi","latency":3532,"to_interface":"i3","to_router":"Xi'an","weight":161},{"bandwidth":125000,"bidirectional":true,"from_interface":"i1","from_router":"Urumchi","latency":2784,"to_interface":"i0","to_router":"Yinchuan","weight":200},{"bandwidth":125000,"bidirectional":true,"from_interface":"i0","from_router":"Xining","latency":324,"to_interface":"i0","to_router":"Lanzhou","weight":200},{"bandwidth":155000,"bidirectional":true,"from_interface":"i1","from_router":"Xining","latency":1170,"to_interface":"i4","to_router":"Xi'an","weight":161},{"bandwidth":155000,"bidirectional":true,"from_interface":"i1","from_router":"Lanzhou","latency":850,"to_interface":"i5","to_router":"Xi'an","weight":161},{"bandwidth":155000,"bidirectional":true,"from_interface":"i6","from_router":"Xi'an","latency":879,"to_interface":"i1","to_router":"Yinchuan","weight":161},{"bandwidth":125000,"bidirectional":true,"from_interface":"i1","from_router":"Hohhot","latency":564,"to_interface":"i1","to_router":"Taiyuan","weight":200}],"name":"Cernet","routers":[{"interfaces":[{"names":["i0","i1"],"routing_table":{}}],"location":{"latitude":25.28194,"longitude":110.28639},"name":"Gullin"},{"interfaces":[{"names":["i0","i1"],"routing_table":{}}],"location":{"latitude":25.03889,"longitude":102.71833},"name":"Kunming"},{"interfaces":[{"names":["i0","i1"],"routing_table":{}}],"location":{"latitude":29.56278,"longitude":106.55278},"name":"Chongqing"},{"interfaces":[{"names":["i0","i1"],"routing_table":{}}],"location":{"latitude":26.58333,"longitude":106.71667},"name":"Guiyang"},{"interfaces":[{"names":["i0","i1"],"routing_table":{}}],"location":{"latitude":20.04583,"longitude":110.34167},"name":"Haikou"},{"interfaces":[{"names":["i0"],"routing_table":{}}],"location":{"latitude":23.38861,"longitude":112.82111},"name":"Xianggang"},{"interfaces":[{"names":["i0","i1"],"routing_table":{}}],"location":{"latitude":22.81667,"longitude":108.31667},"name":"Nanning"},{"interfaces":[{"names":["i0","i1","i2","i3","i4","i5","i6","i7"],"routing_table":{}}],"location":{"latitude":23.11667,"longitude":113.25},"name":"Guangzhou"},{"interfaces":[{"names":["i0","i1"],"routing_table":{}}],"location":{"latitude":22.54554,"longitude":114.0683},"name":"Shenzhen"},{"interfaces":[{"names":["i0","i1"],"routing_table":{}}],"location":{"latitude":24.47979,"longitude":118.08187},"name":"Xiemen"},{"interfaces":[{"names":["i0"],"routing_table":{}}],"name":"Japan"},{"interfaces":[{"names":["i0"],"routing_table":{}}],"name":"Europe"},{"interfaces":[{"names":["i0","i1","i2"],"routing_table":{}}],"location":{"latitude":38.04139,"longitude":114.47861},"name":"Shijiazhuang"},{"interfaces":[{"names":["i0","i1"],"routing_table":{}}],"location":{"latitude":39.14222,"longitude":117.17667},"name":"Tianjing"},{"interfaces":[{"names":["i0"],"routing_table":{}}],"location":{"latitude":38.91222,"longitude":121.60222},"name":"Dalian"},{"interfaces":[{"names":["i0","i1","i2","i3","i4"],"routing_table":{}}],"location":{"latitude":41.79222,"longitude":123.43278},"name":"Shenyang"},{"interfaces":[{"names":["i0"],"routing_table":{}}],"location":{"latitude":45.75,"longitude":126.65},"name":"Harbin"},{"interfaces":[{"names":["i0"],"routing_table":{}}],"location":{"latitude":43.88,"longitude":125.32278},"name":"Chanchun"},{"interfaces":[{"names":["i0"],"routing_table":{}}],"name":"N.A"},{"interfaces":[{"names":["i0"],"routing_table":{}}],"name":"Korea"},{"interfaces":[{"names":["i0","i1"],"routing_table":{}}],"location":{"latitude":31.86389,"longitude":117.28083},"name":"Hefei"},{"interfaces":[{"names":["i0","i1","i2","i3","i4","i5","i6","i7","i8","i9","i10","i11","i12","i13","i14","i15","i16"],"routing_table":{}}],"location":{"latitude":39.9075,"longitude":116.39723},"name":"Beijing"},{"interfaces":[{"names":["i0"],"routing_table":{}}],"location":{"latitude":38.04139,"longitude":114.47861},"name":"Shijiazhuang2"},{"interfaces":[{"names":["i0","i1"],"routing_table":{}}],"location":{"latitude":28.68333,"longitude":115.88333},"name":"Nanchang"},{"interfaces":[{"names":["i0","i1","i2","i3","i4","i5","i6","i7"],"routing_table":{}}],"location":{"latitude":30.58333,"longitude":114.26667},"name":"Wuhan"},{"interfaces":[{"names":["i0","i1"],"routing_table":{}}],"location":{"latitude":28.2,"longitude":112.96667},"name":"Changsha"},{"interfaces":[{"names":["i0","i1"],"routing_table":{}}],"location":{"latitude":26.06139,"longitude":119.30611},"name":"Fuzhou"},{"interfaces":[{"names":["i0","i1"],"routing_table":{}}],"location":{"latitude":36.09861,"longitude":120.37194},"name":"Qingdao"},{"interfaces":[{"names":["i0","i1","i2","i3","i4","i5"],"routing_table":{}}],"location":{"latitude":32.06167,"longitude":118.77778},"name":"Nanjing"},{"interfaces":[{"names":["i0","i1","i2","i3","i4","i5"],"routing_table":{}}],"location":{"latitude":31.22222,"longitude":121.45806},"name":"Shanghai"},{"interfaces":[{"names":["i0"],"routing_table":{}}],"location":{"latitude":30.25528,"longitude":120.16889},"name":"Hangzhou"},{"interfaces":[{"names":["i0","i1"],"routing_table":{}}],"location":{"latitude":34.75778,"longitude":113.64861},"name":"Zhengzhou"},{"interfaces":[{"names":["i0","i1","i2","i3","i4"],"routing_table":{}}],"location":{"latitude":25.71056,"longitude":116.97865},"name":"Chengdou"},{"interfaces":[{"names":["i0","i1"],"routing_table":{}}],"location":{"latitude":43.8,"longitude":87.58333},"name":"Urumchi"},{"interfaces":[{"names":["i0"],"routing_table":{}}],"location":{"latitude":29.65,"longitude":91.1},"name":"Lasa"},{"interfaces":[{"names":["i0","i1"],"routing_table":{}}],"location":{"latitude":36.61667,"longitude":101.76667},"name":"Xining"},{"interfaces":[{"names":["i0","i1"],"routing_table":{}}],"location":{"latitude":36.05639,"longitude":103.79222},"name":"Lanzhou"},{"interfaces":[{"names":["i0","i1","i2","i3","i4","i5","i6"],"routing_table":{}}],"location":{"latitude":34.25833,"longitude":108.92861},"name":"Xi'an"},{"interfaces":[{"names":["i0","i1"],"routing_table":{}}],"location":{"latitude":38.46806,"longitude":106.27306},"name":"Yinchuan"},{"interfaces":[{"names":["i0","i1"],"routing_table":{}}],"location":{"latitude":40.81056,"longitude":111.65222},"name":"Hohhot"},{"interfaces":[{"names":["i0","i1"],"routing_table":{}}],"location":{"latitude":37.86944,"longitude":112.56028},"name":"Taiyuan"}]}}
