{"network":{"links":[{"bandwidth":79666,"bidirectional":true,"from_interface":"i0","from_router":"Djelfa","latency":391,"to_interface":"i0","to_router":"Alger","weight":19},{"bandwidth":79666,"bidirectional":true,"from_interface":"i0","from_router":"Medea","latency":105,"to_interface":"i1","to_router":"Alger","weight":19},{"bandwidth":60000,"bidirectional":true,"from_interface":"i0","from_router":"Internet","latency":272,"to_interface":"i2","to_router":"Alger","weight":25},{"bandwidth":79666,"bidirectional":true,"from_interface":"i0","from_router":"Blida","latency":66,"to_interface":"i3","to_router":"Alger","weight":19},{"bandwidth":79666,"bidirectional":true,"from_interface":"i0","from_router":"ElOued","latency":359,"to_interface":"i0","to_router":"Ouargla","weight":19},{"bandwidth":79666,"bidirectional":true,"from_interface":"i0","from_router":"Msila","latency":155,"to_interface":"i0","to_router":"Constantine","weight":19},{"bandwidth":79666,"bidirectional":true,"from_interface":"i0","from_router":"Laghouat","latency":518,"to_interface":"i1","to_router":"Ouargla","weight":19},{"bandwidth":79666,"bidirectional":true,"from_interface":"i2","from_router":"Ouargla","latency":960,"to_interface":"i4","to_router":"Alger","weight":19},{"bandwidth":79666,"bidirectional":true,"from_interface":"i1","from_router":"Constantine","latency":315,"to_interface":"i0","to_router":"Biskra","weight":19},{"bandwidth":79666,"bidirectional":true,"from_interface":"i2","from_router":"Constantine","latency":168,"to_interface":"i0","to_router":"Batna","weight":19},{"bandwidth":79666,"bidirectional":true,"from_interface":"i3","from_router":"Constantine","latency":202,"to_interface":"i0","to_router":"Annaba","weight":19},{"bandwidth":79666,"bidirectional":true,"from_interface":"i4","from_router":"Constantine","latency":127,"to_interface":"i0","to_router":"Guelma","weight":19},{"bandwidth":79666,"bidirectional":true,"from_interface":"i5","from_router":"Constantine","latency":293,"to_interface":"i0","to_router":"Tebessa","weight":19},{"bandwidth":79666,"bidirectional":true,"from_interface":"i6","from_router":"Constantine","latency":122,"to_interface":"i0","to_router":"Oum_el_Bouaghi","weight":19},{"bandwidth":79666,"bidirectional":true,"from_interface":"i7","from_router":"Constantine","latency":109,"to_interface":"i0","to_router":"Skikda","weight":19},{"bandwidth":79666,"bidirectional":true,"from_interface":"i8","from_router":"Constantine","latency":156,"to_interface":"i0","to_router":"Jijel","weight":19},{"bandwidth":79666,"bidirectional":true,"from_interface":"i9","from_router":"Constantine","latency":541,"to_interface":"i5","to_router":"Alger","weight":19},{"bandwidth":79666,"bidirectional":true,"from_interface":"i0","from_router":"Tizi_Ouzou","latency":154,"to_interface":"i6","to_router":"Alger","weight":19},{"bandwidth":79666,"bidirectional":true,"from_interface":"i0","from_router":"Bejaia","latency":308,"to_interface":"i7","to_router":"Alger","weight":19},{"bandwidth":79666,"bidirectional":true,"from_interface":"i0","from_router":"Setif","latency":373,"to_interface":"i8","to_router":"Alger","weight":19},{"bandwidth":79666,"bidirectional":true,"from_interface":"i0","from_router":"Tiaret","latency":306,"to_interface":"i0","to_router":"Oran","weight":19},{"bandwidth":155000,"bidirectional":true,"from_interface":"i0","from_router":"GEANT","latency":272,"to_interface":"i9","to_router":"Alger","weight":10},{"bandwidth":79666,"bidirectional":true,"from_interface":"i10","from_router":"Alger","latency":290,"to_interface":"i0","to_router":"Chlef","weight":19},{"bandwidth":24000,"bidirectional":true,"from_interface":"i11","from_router":"Alger","latency":589,"to_interface":"i1","to_router":"Oran","weight":64},{"bandwidth":79666,"bidirectional":true,"from_interface":"i2","from_router":"Oran","latency":123,"to_interface":"i0","to_router":"Mostaganem","weight":19},{"bandwidth":79666,"bidirectional":true,"from_interface":"i3","from_router":"Oran","latency":186,"to_interface":"i0","to_router":"Tlemcen","weight":19},{"bandwidth":79666,"bidirectional":true,"from_interface":"i4","from_router":"Oran","latency":97,"to_interface":"i0","to_router":"Sidi_Bel_Abbes","weight":19},{"bandwidth":79666,"bidirectional":true,"from_interface":"i5","from_router":"Oran","latency":204,"to_interface":"i0","to_router":"Saida","weight":19},{"bandwidth":79666,"bidirectional":true,"from_interface":"i6","from_router":"Oran","latency":118,"to_interface":"i0","to_router":"Mascara","weight":19}],"name":"Arn","routers":[{"interfaces":[{"names":["i0"],"routing_table":{}}],"location":{"latitude":34.67279,"longitude":3.263},"name":"Djelfa"},{"interfaces":[{"names":["i0"],"routing_table":{}}],"location":{"latitude":36.26417,"longitude":2.75393},"name":"Medea"},{"interfaces":[{"names":["i0"],"routing_table":{}}],"name":"Internet"},{"interfaces":[{"names":["i0"],"routing_table":{}}],"location":{"latitude":36.47004,"longitude":2.8277},"name":"Blida"},{"interfaces":[{"names":["i0"],"routing_table":{}}],"location":{"latitude":33.35608,"longitude":6.86319},"name":"ElOued"},{"interfaces":[{"names":["i0"],"routing_table":{}}],"location":{"latitude":36.65944,"longitude":5.67186},"name":"Msila"},{"interfaces":[{"names":["i0"],"routing_table":{}}],"location":{"latitude":33.8,"longitude":2.86514},"name":"Laghouat"},{"interfaces":[{"names":["i0","i1","i2"],"routing_table":{}}],"location":{"latitude":31.94932,"longitude":5.32502},"name":"Ouargla"},{"interfaces":[{"names":["i0","i1","i2","i3","i4","i5","i6","i7","i8","i9"],"routing_table":{}}],"location":{"latitude":36.365,"longitude":6.61472},"name":"Constantine"},{"interfaces":[{"names":["i0"],"routing_table":{}}],"location":{"latitude":34.85038,"longitude":5.72805},"name":"Biskra"},{"interfaces":[{"names":["i0"],"routing_table":{}}],"location":{"latitude":35.55597,"longitude":6.17414},"name":"Batna"},{"interfaces":[{"names":["i0"],"routing_table":{}}],"location":{"latitude":36.71182,"longitude":4.04591},"name":"Tizi_Ouzou"},{"interfaces":[{"names":["i0"],"routing_table":{}}],"location":{"latitude":36.9,"longitude":7.76667},"name":"Annaba"},{"interfaces":[{"names":["i0"],"routing_table":{}}],"location":{"latitude":36.46214,"longitude":7.42608},"name":"Guelma"},{"interfaces":[{"names":["i0"],"routing_table":{}}],"location":{"latitude":35.40417,"longitude":8.12417},"name":"Tebessa"},{"interfaces":[{"names":["i0"],"routing_table":{}}],"location":{"latitude":35.87541,"longitude":7.11353},"name":"Oum_el_Bouaghi"},{"interfaces":[{"names":["i0"],"routing_table":{}}],"location":{"latitude":36.75587,"longitude":5.08433},"name":"Bejaia"},{"interfaces":[{"names":["i0"],"routing_table":{}}],"location":{"latitude":36.19112,"longitude":5.41373},"name":"Setif"},{"interfaces":[{"names":["i0"],"routing_table":{}}],"location":{"latitude":36.87617,"longitude":6.90921},"name":"Skikda"},{"interfaces":[{"names":["i0"],"routing_table":{}}],"location":{"latitude":36.82055,"longitude":5.76671},"name":"Jijel"},{"interfaces":[{"names":["i0"],"routing_table":{}}],"location":{"latitude":35.37103,"longitude":1.31699},"name":"Tiaret"},{"interfaces":[{"names":["i0"],"routing_table":{}}],"name":"GEANT"},{"interfaces":[{"names":["i0","i1","i2","i3","i4","i5","i6","i7","i8","i9","i10","i11"],"routing_table":{}}],"location":{"latitude":36.7525,"longitude":3.04197},"name":"Alger"},{"interfaces":[{"names":["i0"],"routing_table":{}}],"location":{"latitude":36.19591,"longitude":1.25538},"name":"Chlef"},{"interfaces":[{"names":["i0","i1","i2","i3","i4","i5","i6"],"routing_table":{}}],"location":{"latitude":35.69111,"longitude":-0.64167},"name":"Oran"},{"interfaces":[{"names":["i0"],"routing_table":{}}],"location":{"latitude":35.93115,"longitude":0.08918},"name":"Mostaganem"},{"interfaces":[{"names":["i0"],"routing_table":{}}],"location":{"latitude":34.87833,"longitude":-1.315},"name":"Tlemcen"},{"interfaces":[{"names":["i0"],"routing_table":{}}],"location":{"latitude":35.18994,"longitude":-0.63085},"name":"Sidi_Bel_Abbes"},{"interfaces":[{"names":["i0"],"routing_table":{}}],"location":{"latitude":34.83034,"longitude":0.15171},"name":"Saida"},{"interfaces":[{"names":["i0"],"routing_table":{}}],"location":{"latitude":35.31473,"longitude":-0.05037},"name":"Mascara"}]}}
