{"network":{"links":[{"bandwidth":20000000,"bidirectional":true,"from_interface":"i0","from_router":"Fukuoka_DC","latency":185,"to_interface":"i0","to_router":"Nagasaki_U","weight":20},{"bandwidth":20000000,"bidirectional":true,"from_interface":"i1","from_router":"Fukuoka_DC","latency":201,"to_interface":"i0","to_router":"Oita_U","weight":20},{"bandwidth":20000000,"bidirectional":true,"from_interface":"i2","from_router":"Fukuoka_DC","latency":148,"to_interface":"i0","to_router":"Kyushu_U","weight":20},{"bandwidth":20000000,"bidirectional":true,"from_interface":"i3","from_router":"Fukuoka_DC","latency":276,"to_interface":"i0","to_router":"Kyushu_IT","weight":20},{"bandwidth":20000000,"bidirectional":true,"from_interface":"i4","from_router":"Fukuoka_DC","latency":350,"to_interface":"i0","to_router":"Hiroshima_DC","weight":20},{"bandwidth":20000000,"bidirectional":true,"from_interface":"i5","from_router":"Fukuoka_DC","latency":276,"to_interface":"i0","to_router":"Kurnamoto_U","weight":20},{"bandwidth":20000000,"bidirectional":true,"from_interface":"i6","from_router":"Fukuoka_DC","latency":276,"to_interface":"i0","to_router":"U_of_the_Ryukyus","weight":20},{"bandwidth":20000000,"bidirectional":true,"from_interface":"i7","from_router":"Fukuoka_DC","latency":384,"to_interface":"i0","to_router":"Kagoshima_U","weight":20},{"bandwidth":20000000,"bidirectional":true,"from_interface":"i8","from_router":"Fukuoka_DC","latency":369,"to_interface":"i0","to_router":"Matsuyama_DC","weight":20},{"bandwidth":20000000,"bidirectional":true,"from_interface":"i0","from_router":"Hiroshima_U","latency":5,"to_interface":"i1","to_router":"Hiroshima_DC","weight":20},{"bandwidth":20000000,"bidirectional":true,"from_interface":"i2","from_router":"Hiroshima_DC","latency":161,"to_interface":"i0","to_router":"Yamaguchi_U","weight":20},{"bandwidth":20000000,"bidirectional":true,"from_interface":"i3","from_router":"Hiroshima_DC","latency":519,"to_interface":"i0","to_router":"Kyoto_DC","weight":20},{"bandwidth":20000000,"bidirectional":true,"from_interface":"i4","from_router":"Hiroshima_DC","latency":343,"to_interface":"i0","to_router":"Tottori_U","weight":20},{"bandwidth":20000000,"bidirectional":true,"from_interface":"i5","from_router":"Hiroshima_DC","latency":235,"to_interface":"i0","to_router":"Okayama_U","weight":20},{"bandwidth":20000000,"bidirectional":true,"from_interface":"i0","from_router":"Ehime_U","latency":5,"to_interface":"i1","to_router":"Matsuyama_DC","weight":20},{"bandwidth":20000000,"bidirectional":true,"from_interface":"i0","from_router":"IMS,_U_Tokyo","latency":276,"to_interface":"i0","to_router":"Tokyo_DC1","weight":20},{"bandwidth":20000000,"bidirectional":true,"from_interface":"i0","from_router":"ISSP,_U_Tokyo","latency":276,"to_interface":"i1","to_router":"Tokyo_DC1","weight":20},{"bandwidth":20000000,"bidirectional":true,"from_interface":"i2","from_router":"Matsuyama_DC","latency":221,"to_interface":"i0","to_router":"Kagawa_U","weight":20},{"bandwidth":20000000,"bidirectional":true,"from_interface":"i3","from_router":"Matsuyama_DC","latency":283,"to_interface":"i0","to_router":"U_Tokushima","weight":20},{"bandwidth":20000000,"bidirectional":true,"from_interface":"i4","from_router":"Matsuyama_DC","latency":452,"to_interface":"i0","to_router":"Osaka_DC","weight":20},{"bandwidth":20000000,"bidirectional":true,"from_interface":"i0","from_router":"Kamioka_Obs,_ICRR,_U_Tokyo","latency":276,"to_interface":"i0","to_router":"Nagoya_DC","weight":20},{"bandwidth":20000000,"bidirectional":true,"from_interface":"i0","from_router":"Chiba_U","latency":86,"to_interface":"i0","to_router":"Tokyo_DC2","weight":20},{"bandwidth":20000000,"bidirectional":true,"from_interface":"i0","from_router":"Shinshu_U","latency":916,"to_interface":"i1","to_router":"Tokyo_DC2","weight":20},{"bandwidth":20000000,"bidirectional":true,"from_interface":"i0","from_router":"NIFS","latency":276,"to_interface":"i1","to_router":"Nagoya_DC","weight":20},{"bandwidth":20000000,"bidirectional":true,"from_interface":"i0","from_router":"Kanazawa_U","latency":5,"to_interface":"i0","to_router":"Kanazawa_DC","weight":20},{"bandwidth":20000000,"bidirectional":true,"from_interface":"i0","from_router":"JAIST","latency":276,"to_interface":"i1","to_router":"Kanazawa_DC","weight":20},{"bandwidth":20000000,"bidirectional":true,"from_interface":"i0","from_router":"Doshisha_U","latency":45,"to_interface":"i1","to_router":"Kyoto_DC","weight":20},{"bandwidth":20000000,"bidirectional":true,"from_interface":"i0","from_router":"ICR,_Kyoto_U","latency":276,"to_interface":"i2","to_router":"Kyoto_DC","weight":20},{"bandwidth":40000000,"bidirectional":true,"from_interface":"i2","from_router":"Nagoya_DC","latency":416,"to_interface":"i2","to_router":"Tokyo_DC1","weight":10},{"bandwidth":20000000,"bidirectional":true,"from_interface":"i3","from_router":"Nagoya_DC","latency":276,"to_interface":"i0","to_router":"NINS-Okazaki","weight":20},{"bandwidth":20000000,"bidirectional":true,"from_interface":"i4","from_router":"Nagoya_DC","latency":231,"to_interface":"i0","to_router":"Shizuoka_U","weight":20},{"bandwidth":20000000,"bidirectional":true,"from_interface":"i5","from_router":"Nagoya_DC","latency":5,"to_interface":"i0","to_router":"Nagoya_U","weight":20},{"bandwidth":40000000,"bidirectional":true,"from_interface":"i6","from_router":"Nagoya_DC","latency":236,"to_interface":"i1","to_router":"Osaka_DC","weight":10},{"bandwidth":20000000,"bidirectional":true,"from_interface":"i2","from_router":"Kanazawa_DC","latency":1377,"to_interface":"i0","to_router":"Sapporo_DC","weight":20},{"bandwidth":20000000,"bidirectional":true,"from_interface":"i3","from_router":"Kanazawa_DC","latency":482,"to_interface":"i2","to_router":"Tokyo_DC2","weight":20},{"bandwidth":20000000,"bidirectional":true,"from_interface":"i4","from_router":"Kanazawa_DC","latency":324,"to_interface":"i3","to_router":"Kyoto_DC","weight":20},{"bandwidth":20000000,"bidirectional":true,"from_interface":"i5","from_router":"Kanazawa_DC","latency":433,"to_interface":"i0","to_router":"Niigata_U","weight":20},{"bandwidth":20000000,"bidirectional":true,"from_interface":"i6","from_router":"Kanazawa_DC","latency":120,"to_interface":"i0","to_router":"Fukui_U","weight":20},{"bandwidth":20000000,"bidirectional":true,"from_interface":"i7","from_router":"Kanazawa_DC","latency":94,"to_interface":"i0","to_router":"Toyama_U","weight":20},{"bandwidth":20000000,"bidirectional":true,"from_interface":"i0","from_router":"Yamanashi_U","latency":157,"to_interface":"i3","to_router":"Tokyo_DC2","weight":20},{"bandwidth":20000000,"bidirectional":true,"from_interface":"i0","from_router":"Tokyo_DC3","latency":5,"to_interface":"i4","to_router":"Tokyo_DC2","weight":20},{"bandwidth":20000000,"bidirectional":true,"from_interface":"i0","from_router":"NII","latency":276,"to_interface":"i3","to_router":"Tokyo_DC1","weight":20},{"bandwidth":20000000,"bidirectional":true,"from_interface":"i0","from_router":"NII-CHiba","latency":276,"to_interface":"i4","to_router":"Tokyo_DC1","weight":20},{"bandwidth":20000000,"bidirectional":true,"from_interface":"i0","from_router":"GSIST,_U_Tokyo","latency":276,"to_interface":"i5","to_router":"Tokyo_DC1","weight":20},{"bandwidth":20000000,"bidirectional":true,"from_interface":"i0","from_router":"U_Electro-Communications","latency":276,"to_interface":"i5","to_router":"Tokyo_DC2","weight":20},{"bandwidth":20000000,"bidirectional":true,"from_interface":"i0","from_router":"RIKEN","latency":276,"to_interface":"i6","to_router":"Tokyo_DC1","weight":20},{"bandwidth":20000000,"bidirectional":true,"from_interface":"i7","from_router":"Tokyo_DC1","latency":5,"to_interface":"i6","to_router":"Tokyo_DC2","weight":20},{"bandwidth":20000000,"bidirectional":true,"from_interface":"i8","from_router":"Tokyo_DC1","latency":276,"to_interface":"i0","to_router":"JAXA-ISAS","weight":20},{"bandwidth":20000000,"bidirectional":true,"from_interface":"i9","from_router":"Tokyo_DC1","latency":276,"to_interface":"i0","to_router":"Yokohama_National_U","weight":20},{"bandwidth":20000000,"bidirectional":true,"from_interface":"i10","from_router":"Tokyo_DC1","latency":28,"to_interface":"i0","to_router":"Keio_U","weight":20},{"bandwidth":20000000,"bidirectional":true,"from_interface":"i11","from_router":"Tokyo_DC1","latency":276,"to_interface":"i0","to_router":"Tokyo_IT","weight":20},{"bandwidth":20000000,"bidirectional":true,"from_interface":"i12","from_router":"Tokyo_DC1","latency":138,"to_interface":"i0","to_router":"Tsukuba_DC","weight":20},{"bandwidth":20000000,"bidirectional":true,"from_interface":"i13","from_router":"Tokyo_DC1","latency":5,"to_interface":"i0","to_router":"U_Tokyo","weight":20},{"bandwidth":20000000,"bidirectional":true,"from_interface":"i14","from_router":"Tokyo_DC1","latency":502,"to_interface":"i0","to_router":"Waseda_U","weight":20},{"bandwidth":20000000,"bidirectional":true,"from_interface":"i15","from_router":"Tokyo_DC1","latency":276,"to_interface":"i0","to_router":"JAXA-IAT","weight":20},{"bandwidth":20000000,"bidirectional":true,"from_interface":"i16","from_router":"Tokyo_DC1","latency":276,"to_interface":"i0","to_router":"NAOJ","weight":20},{"bandwidth":20000000,"bidirectional":true,"from_interface":"i7","from_router":"Tokyo_DC2","latency":276,"to_interface":"i0","to_router":"ISM","weight":20},{"bandwidth":20000000,"bidirectional":true,"from_interface":"i8","from_router":"Tokyo_DC2","latency":168,"to_interface":"i0","to_router":"Gunma_U","weight":20},{"bandwidth":20000000,"bidirectional":true,"from_interface":"i9","from_router":"Tokyo_DC2","latency":276,"to_interface":"i0","to_router":"JAMSTEC","weight":20},{"bandwidth":20000000,"bidirectional":true,"from_interface":"i10","from_router":"Tokyo_DC2","latency":60,"to_interface":"i0","to_router":"Saitama_U","weight":20},{"bandwidth":20000000,"bidirectional":true,"from_interface":"i11","from_router":"Tokyo_DC2","latency":276,"to_interface":"i0","to_router":"Tokyo_U_Ag_and_Tech","weight":20},{"bandwidth":20000000,"bidirectional":true,"from_interface":"i0","from_router":"KEK","latency":276,"to_interface":"i1","to_router":"Tsukuba_DC","weight":20},{"bandwidth":20000000,"bidirectional":true,"from_interface":"i0","from_router":"JAEA","latency":276,"to_interface":"i2","to_router":"Tsukuba_DC","weight":20},{"bandwidth":20000000,"bidirectional":true,"from_interface":"i3","from_router":"Tsukuba_DC","latency":404,"to_interface":"i0","to_router":"Sendai_DC","weight":20},{"bandwidth":20000000,"bidirectional":true,"from_interface":"i4","from_router":"Tsukuba_DC","latency":5,"to_interface":"i0","to_router":"U_Tsukuba","weight":20},{"bandwidth":20000000,"bidirectional":true,"from_interface":"i4","from_router":"Kyoto_DC","latency":5,"to_interface":"i0","to_router":"Kyoto_U","weight":20},{"bandwidth":20000000,"bidirectional":true,"from_interface":"i5","from_router":"Kyoto_DC","latency":76,"to_interface":"i2","to_router":"Osaka_DC","weight":20},{"bandwidth":20000000,"bidirectional":true,"from_interface":"i0","from_router":"Kansai_U","latency":176,"to_interface":"i3","to_router":"Osaka_DC","weight":20},{"bandwidth":20000000,"bidirectional":true,"from_interface":"i0","from_router":"Osaka_U","latency":5,"to_interface":"i4","to_router":"Osaka_DC","weight":20},{"bandwidth":20000000,"bidirectional":true,"from_interface":"i0","from_router":"Kobe_U","latency":53,"to_interface":"i5","to_router":"Osaka_DC","weight":20},{"bandwidth":20000000,"bidirectional":true,"from_interface":"i0","from_router":"JASRI","latency":276,"to_interface":"i6","to_router":"Osaka_DC","weight":20},{"bandwidth":20000000,"bidirectional":true,"from_interface":"i1","from_router":"Sapporo_DC","latency":5,"to_interface":"i0","to_router":"Hokkaido_U","weight":20},{"bandwidth":20000000,"bidirectional":true,"from_interface":"i2","from_router":"Sapporo_DC","latency":895,"to_interface":"i1","to_router":"Sendai_DC","weight":20},{"bandwidth":20000000,"bidirectional":true,"from_interface":"i1","from_router":"Hokkaido_U","latency":276,"to_interface":"i0","to_router":"Kitami_IT","weight":20},{"bandwidth":20000000,"bidirectional":true,"from_interface":"i0","from_router":"Hirosaki_U","latency":439,"to_interface":"i2","to_router":"Sendai_DC","weight":20},{"bandwidth":20000000,"bidirectional":true,"from_interface":"i3","from_router":"Sendai_DC","latency":1761,"to_interface":"i0","to_router":"Tohoku_U","weight":20}],"name":"Sinet","routers":[{"interfaces":[{"names":["i0","i1","i2","i3","i4","i5","i6","i7","i8"],"routing_table":{}}],"location":{"latitude":33.60639,"longitude":130.41806},"name":"Fukuoka_DC"},{"interfaces":[{"names":["i0"],"routing_table":{}}],"location":{"latitude":33.23806,"longitude":131.6125},"name":"Oita_U"},{"interfaces":[{"names":["i0"],"routing_table":{}}],"location":{"latitude":33.0,"longitude":131.0},"name":"Kyushu_U"},{"interfaces":[{"names":["i0"],"routing_table":{}}],"name":"Kyushu_IT"},{"interfaces":[{"names":["i0"],"routing_table":{}}],"location":{"latitude":34.39627,"longitude":132.45937},"name":"Hiroshima_U"},{"interfaces":[{"names":["i0","i1","i2","i3","i4","i5"],"routing_table":{}}],"location":{"latitude":34.39627,"longitude":132.45937},"name":"Hiroshima_DC"},{"interfaces":[{"names":["i0"],"routing_table":{}}],"location":{"latitude":33.83916,"longitude":132.76574},"name":"Ehime_U"},{"interfaces":[{"names":["i0"],"routing_table":{}}],"location":{"latitude":34.18583,"longitude":131.47139},"name":"Yamaguchi_U"},{"interfaces":[{"names":["i0"],"routing_table":{}}],"name":"IMS,_U_Tokyo"},{"interfaces":[{"names":["i0"],"routing_table":{}}],"name":"ISSP,_U_Tokyo"},{"interfaces":[{"names":["i0","i1","i2","i3","i4"],"routing_table":{}}],"location":{"latitude":33.83916,"longitude":132.76574},"name":"Matsuyama_DC"},{"interfaces":[{"names":["i0"],"routing_table":{}}],"location":{"latitude":34.34028,"longitude":134.04333},"name":"Kagawa_U"},{"interfaces":[{"names":["i0"],"routing_table":{}}],"name":"Kamioka_Obs,_ICRR,_U_Tokyo"},{"interfaces":[{"names":["i0"],"routing_table":{}}],"location":{"latitude":35.60472,"longitude":140.12333},"name":"Chiba_U"},{"interfaces":[{"names":["i0"],"routing_table":{}}],"location":{"latitude":35.16667,"longitude":133.56667},"name":"Shinshu_U"},{"interfaces":[{"names":["i0"],"routing_table":{}}],"name":"NIFS"},{"interfaces":[{"names":["i0"],"routing_table":{}}],"location":{"latitude":36.59444,"longitude":136.62556},"name":"Kanazawa_U"},{"interfaces":[{"names":["i0"],"routing_table":{}}],"name":"JAIST"},{"interfaces":[{"names":["i0"],"routing_table":{}}],"location":{"latitude":34.80559,"longitude":135.77841},"name":"Doshisha_U"},{"interfaces":[{"names":["i0"],"routing_table":{}}],"name":"ICR,_Kyoto_U"},{"interfaces":[{"names":["i0","i1","i2","i3","i4","i5","i6"],"routing_table":{}}],"location":{"latitude":35.18147,"longitude":136.90641},"name":"Nagoya_DC"},{"interfaces":[{"names":["i0"],"routing_table":{}}],"name":"NINS-Okazaki"},{"interfaces":[{"names":["i0"],"routing_table":{}}],"location":{"latitude":34.97694,"longitude":138.38306},"name":"Shizuoka_U"},{"interfaces":[{"names":["i0"],"routing_table":{}}],"location":{"latitude":35.18147,"longitude":136.90641},"name":"Nagoya_U"},{"interfaces":[{"names":["i0","i1","i2","i3","i4","i5","i6","i7"],"routing_table":{}}],"location":{"latitude":36.59444,"longitude":136.62556},"name":"Kanazawa_DC"},{"interfaces":[{"names":["i0"],"routing_table":{}}],"location":{"latitude":36.69528,"longitude":137.21139},"name":"Toyama_U"},{"interfaces":[{"names":["i0"],"routing_table":{}}],"location":{"latitude":35.66389,"longitude":138.56833},"name":"Yamanashi_U"},{"interfaces":[{"names":["i0"],"routing_table":{}}],"location":{"latitude":34.06583,"longitude":134.55944},"name":"U_Tokushima"},{"interfaces":[{"names":["i0"],"routing_table":{}}],"location":{"latitude":35.61488,"longitude":139.5813},"name":"Tokyo_DC3"},{"interfaces":[{"names":["i0"],"routing_table":{}}],"name":"NII"},{"interfaces":[{"names":["i0"],"routing_table":{}}],"name":"NII-CHiba"},{"interfaces":[{"names":["i0"],"routing_table":{}}],"name":"GSIST,_U_Tokyo"},{"interfaces":[{"names":["i0"],"routing_table":{}}],"name":"U_Electro-Communications"},{"interfaces":[{"names":["i0"],"routing_table":{}}],"name":"RIKEN"},{"interfaces":[{"names":["i0","i1","i2","i3","i4","i5","i6","i7","i8","i9","i10","i11","i12","i13","i14","i15","i16"],"routing_table":{}}],"location":{"latitude":35.61488,"longitude":139.5813},"name":"Tokyo_DC1"},{"interfaces":[{"names":["i0","i1","i2","i3","i4","i5","i6","i7","i8","i9","i10","i11"],"routing_table":{}}],"location":{"latitude":35.61488,"longitude":139.5813},"name":"Tokyo_DC2"},{"interfaces":[{"names":["i0"],"routing_table":{}}],"name":"JAXA-ISAS"},{"interfaces":[{"names":["i0"],"routing_table":{}}],"name":"Yokohama_National_U"},{"interfaces":[{"names":["i0"],"routing_table":{}}],"location":{"latitude":35.62522,"longitude":139.42416},"name":"Keio_U"},{"interfaces":[{"names":["i0"],"routing_table":{}}],"name":"Tokyo_IT"},{"interfaces":[{"names":["i0"],"routing_table":{}}],"location":{"latitude":37.90222,"longitude":139.02361},"name":"Niigata_U"},{"interfaces":[{"names":["i0"],"routing_table":{}}],"location":{"latitude":36.06443,"longitude":136.22257},"name":"Fukui_U"},{"interfaces":[{"names":["i0"],"routing_table":{}}],"name":"KEK"},{"interfaces":[{"names":["i0"],"routing_table":{}}],"name":"JAEA"},{"interfaces":[{"names":["i0","i1","i2","i3","i4"],"routing_table":{}}],"location":{"latitude":36.2,"longitude":140.1},"name":"Tsukuba_DC"},{"interfaces":[{"names":["i0"],"routing_table":{}}],"location":{"latitude":36.2,"longitude":140.1},"name":"U_Tsukuba"},{"interfaces":[{"names":["i0"],"routing_table":{}}],"location":{"latitude":36.39111,"longitude":139.06083},"name":"Gunma_U"},{"interfaces":[{"names":["i0"],"routing_table":{}}],"name":"ISM"},{"interfaces":[{"names":["i0"],"routing_table":{}}],"location":{"latitude":35.61488,"longitude":139.5813},"name":"U_Tokyo"},{"interfaces":[{"names":["i0","i1","i2","i3","i4","i5"],"routing_table":{}}],"location":{"latitude":35.02107,"longitude":135.75385},"name":"Kyoto_DC"},{"interfaces":[{"names":["i0"],"routing_table":{}}],"location":{"latitude":35.02107,"longitude":135.75385},"name":"Kyoto_U"},{"interfaces":[{"names":["i0"],"routing_table":{}}],"location":{"latitude":38.3,"longitude":139.55},"name":"Waseda_U"},{"interfaces":[{"names":["i0"],"routing_table":{}}],"location":{"latitude":34.27339,"longitude":136.5065},"name":"Kansai_U"},{"interfaces":[{"names":["i0"],"routing_table":{}}],"location":{"latitude":34.69374,"longitude":135.50218},"name":"Osaka_U"},{"interfaces":[{"names":["i0"],"routing_table":{}}],"location":{"latitude":34.6913,"longitude":135.183},"name":"Kobe_U"},{"interfaces":[{"names":["i0"],"routing_table":{}}],"name":"JAMSTEC"},{"interfaces":[{"names":["i0"],"routing_table":{}}],"name":"JASRI"},{"interfaces":[{"names":["i0"],"routing_table":{}}],"location":{"latitude":35.5,"longitude":134.23333},"name":"Tottori_U"},{"interfaces":[{"names":["i0"],"routing_table":{}}],"location":{"latitude":34.66167,"longitude":133.935},"name":"Okayama_U"},{"interfaces":[{"names":["i0","i1","i2","i3","i4","i5","i6"],"routing_table":{}}],"location":{"latitude":34.69374,"longitude":135.50218},"name":"Osaka_DC"},{"interfaces":[{"names":["i0"],"routing_table":{}}],"name":"NAOJ"},{"interfaces":[{"names":["i0"],"routing_table":{}}],"location":{"latitude":35.90807,"longitude":139.65657},"name":"Saitama_U"},{"interfaces":[{"names":["i0"],"routing_table":{}}],"name":"JAXA-IAT"},{"interfaces":[{"names":["i0"],"routing_table":{}}],"name":"Tokyo_U_Ag_and_Tech"},{"interfaces":[{"names":["i0"],"routing_table":{}}],"location":{"latitude":32.74472,"longitude":129.87361},"name":"Nagasaki_U"},{"interfaces":[{"names":["i0"],"routing_table":{}}],"name":"Kurnamoto_U"},{"interfaces":[{"names":["i0","i1","i2"],"routing_table":{}}],"location":{"latitude":43.06417,"longitude":141.34694},"name":"Sapporo_DC"},{"interfaces":[{"names":["i0","i1"],"routing_table":{}}],"location":{"latitude":43.06417,"longitude":141.34694},"name":"Hokkaido_U"},{"interfaces":[{"names":["i0"],"routing_table":{}}],"name":"Kitami_IT"},{"interfaces":[{"names":["i0"],"routing_table":{}}],"location":{"latitude":40.59306,"longitude":140.4725},"name":"Hirosaki_U"},{"interfaces":[{"names":["i0","i1","i2","i3"],"routing_table":{}}],"location":{"latitude":38.26889,"longitude":140.87194},"name":"Sendai_DC"},{"interfaces":[{"names":["i0"],"routing_table":{}}],"location":{"latitude":32.76667,"longitude":131.36667},"name":"Tohoku_U"},{"interfaces":[{"names":["i0"],"routing_table":{}}],"name":"U_of_the_Ryukyus"},{"interfaces":[{"names":["i0"],"routing_table":{}}],"location":{"latitude":31.56018,"longitude":130.55814},"name":"Kagoshima_U"}]}}
