{"network":{"links":[{"bandwidth":1000000,"bidirectional":true,"from_interface":"i0","from_router":"Meridian","latency":31,"to_interface":"i0","to_router":"Nampa","weight":10},{"bandwidth":1000000,"bidirectional":true,"from_interface":"i1","from_router":"Meridian","latency":30,"to_interface":"i0","to_router":"Boise","weight":10},{"bandwidth":1000000,"bidirectional":true,"from_interface":"i0","from_router":"Emmett","latency":50,"to_interface":"i0","to_router":"Hidden_Springs","weight":10},{"bandwidth":1000000,"bidirectional":true,"from_interface":"i1","from_router":"Emmett","latency":131,"to_interface":"i0","to_router":"Indian_Valley","weight":10},{"bandwidth":1000000,"bidirectional":true,"from_interface":"i0","from_router":"Caldwell","latency":75,"to_interface":"i0","to_router":"Fruitland","weight":10},{"bandwidth":1000000,"bidirectional":true,"from_interface":"i1","from_router":"Caldwell","latency":33,"to_interface":"i1","to_router":"Nampa","weight":10},{"bandwidth":1000000,"bidirectional":true,"from_interface":"i0","from_router":"Tipanuk","latency":132,"to_interface":"i0","to_router":"Fairfield","weight":10},{"bandwidth":1000000,"bidirectional":true,"from_interface":"i1","from_router":"Tipanuk","latency":117,"to_interface":"i1","to_router":"Boise","weight":10},{"bandwidth":1000000,"bidirectional":true,"from_interface":"i0","from_router":"Mountain_Home","latency":67,"to_interface":"i0","to_router":"Glenn's_Ferry","weight":10},{"bandwidth":1000000,"bidirectional":true,"from_interface":"i1","from_router":"Mountain_Home","latency":117,"to_interface":"i2","to_router":"Boise","weight":10},{"bandwidth":1000000,"bidirectional":true,"from_interface":"i3","from_router":"Boise","latency":66,"to_interface":"i0","to_router":"Cheyenne","weight":10},{"bandwidth":1000000,"bidirectional":true,"from_interface":"i4","from_router":"Boise","latency":66,"to_interface":"i0","to_router":"Salt_Lake_City","weight":10},{"bandwidth":1000000,"bidirectional":true,"from_interface":"i5","from_router":"Boise","latency":66,"to_interface":"i0","to_router":"Missoula","weight":10},{"bandwidth":1000000,"bidirectional":true,"from_interface":"i6","from_router":"Boise","latency":66,"to_interface":"i0","to_router":"Coeur_D'Alene","weight":10},{"bandwidth":1000000,"bidirectional":true,"from_interface":"i7","from_router":"Boise","latency":66,"to_interface":"i0","to_router":"Spokane","weight":10},{"bandwidth":1000000,"bidirectional":true,"from_interface":"i0","from_router":"Rockland","latency":44,"to_interface":"i0","to_router":"American_Falls","weight":10},{"bandwidth":1000000,"bidirectional":true,"from_interface":"i1","from_router":"Rockland","latency":52,"to_interface":"i0","to_router":"Arbon","weight":10},{"bandwidth":1000000,"bidirectional":true,"from_interface":"i1","from_router":"Arbon","latency":83,"to_interface":"i0","to_router":"Pocatello","weight":10},{"bandwidth":1000000,"bidirectional":true,"from_interface":"i2","from_router":"Arbon","latency":70,"to_interface":"i0","to_router":"Malad_City","weight":10},{"bandwidth":1000000,"bidirectional":true,"from_interface":"i1","from_router":"Fairfield","latency":66,"to_interface":"i0","to_router":"None2","weight":10},{"bandwidth":1000000,"bidirectional":true,"from_interface":"i0","from_router":"Carey","latency":66,"to_interface":"i1","to_router":"None2","weight":10},{"bandwidth":1000000,"bidirectional":true,"from_interface":"i0","from_router":"Albion","latency":39,"to_interface":"i0","to_router":"Malta","weight":10},{"bandwidth":1000000,"bidirectional":true,"from_interface":"i1","from_router":"Albion","latency":45,"to_interface":"i0","to_router":"Rupert","weight":10},{"bandwidth":1000000,"bidirectional":true,"from_interface":"i1","from_router":"Malta","latency":61,"to_interface":"i0","to_router":"Raft_River","weight":10},{"bandwidth":1000000,"bidirectional":true,"from_interface":"i1","from_router":"Rupert","latency":27,"to_interface":"i0","to_router":"Burley","weight":10},{"bandwidth":1000000,"bidirectional":true,"from_interface":"i1","from_router":"Burley","latency":96,"to_interface":"i0","to_router":"Twin_Falls","weight":10},{"bandwidth":1000000,"bidirectional":true,"from_interface":"i2","from_router":"Burley","latency":60,"to_interface":"i0","to_router":"Oakley","weight":10},{"bandwidth":1000000,"bidirectional":true,"from_interface":"i0","from_router":"Bone","latency":48,"to_interface":"i0","to_router":"Iona","weight":10},{"bandwidth":1000000,"bidirectional":true,"from_interface":"i1","from_router":"Bone","latency":88,"to_interface":"i0","to_router":"Henry","weight":10},{"bandwidth":1000000,"bidirectional":true,"from_interface":"i1","from_router":"Iona","latency":22,"to_interface":"i0","to_router":"Idaho_Falls","weight":10},{"bandwidth":1000000,"bidirectional":true,"from_interface":"i2","from_router":"Iona","latency":116,"to_interface":"i0","to_router":"Victor","weight":10},{"bandwidth":1000000,"bidirectional":true,"from_interface":"i0","from_router":"Ashton","latency":41,"to_interface":"i0","to_router":"St_Anthony","weight":10},{"bandwidth":1000000,"bidirectional":true,"from_interface":"i0","from_router":"Tetonia","latency":23,"to_interface":"i0","to_router":"Driggs","weight":10},{"bandwidth":1000000,"bidirectional":true,"from_interface":"i1","from_router":"Driggs","latency":27,"to_interface":"i1","to_router":"Victor","weight":10},{"bandwidth":1000000,"bidirectional":true,"from_interface":"i0","from_router":"Jackson","latency":104,"to_interface":"i0","to_router":"Freedom","weight":10},{"bandwidth":1000000,"bidirectional":true,"from_interface":"i1","from_router":"Freedom","latency":55,"to_interface":"i0","to_router":"Afton","weight":10},{"bandwidth":1000000,"bidirectional":true,"from_interface":"i2","from_router":"Freedom","latency":72,"to_interface":"i1","to_router":"Henry","weight":10},{"bandwidth":1000000,"bidirectional":true,"from_interface":"i2","from_router":"Henry","latency":52,"to_interface":"i0","to_router":"Soda_Springs","weight":10},{"bandwidth":1000000,"bidirectional":true,"from_interface":"i0","from_router":"Gooding","latency":82,"to_interface":"i1","to_router":"Twin_Falls","weight":10},{"bandwidth":1000000,"bidirectional":true,"from_interface":"i0","from_router":"Hailey","latency":66,"to_interface":"i2","to_router":"None2","weight":10},{"bandwidth":1000000,"bidirectional":true,"from_interface":"i1","from_router":"Hailey","latency":84,"to_interface":"i0","to_router":"Galena","weight":10},{"bandwidth":1000000,"bidirectional":true,"from_interface":"i1","from_router":"Pocatello","latency":65,"to_interface":"i0","to_router":"Blackfoot","weight":10},{"bandwidth":1000000,"bidirectional":true,"from_interface":"i2","from_router":"Pocatello","latency":58,"to_interface":"i0","to_router":"McCammon","weight":10},{"bandwidth":1000000,"bidirectional":true,"from_interface":"i1","from_router":"Raft_River","latency":67,"to_interface":"i1","to_router":"American_Falls","weight":10},{"bandwidth":1000000,"bidirectional":true,"from_interface":"i0","from_router":"None","latency":66,"to_interface":"i0","to_router":"Lava_Hot_Springs","weight":10},{"bandwidth":1000000,"bidirectional":true,"from_interface":"i1","from_router":"None","latency":66,"to_interface":"i0","to_router":"Downey","weight":10},{"bandwidth":1000000,"bidirectional":true,"from_interface":"i2","from_router":"None","latency":66,"to_interface":"i0","to_router":"Preston","weight":10},{"bandwidth":1000000,"bidirectional":true,"from_interface":"i2","from_router":"Twin_Falls","latency":82,"to_interface":"i0","to_router":"Gooding2","weight":10},{"bandwidth":1000000,"bidirectional":true,"from_interface":"i3","from_router":"Twin_Falls","latency":25,"to_interface":"i0","to_router":"Filer","weight":10},{"bandwidth":1000000,"bidirectional":true,"from_interface":"i1","from_router":"Soda_Springs","latency":88,"to_interface":"i0","to_router":"Paris","weight":10},{"bandwidth":1000000,"bidirectional":true,"from_interface":"i2","from_router":"Soda_Springs","latency":60,"to_interface":"i1","to_router":"Lava_Hot_Springs","weight":10},{"bandwidth":1000000,"bidirectional":true,"from_interface":"i2","from_router":"Lava_Hot_Springs","latency":30,"to_interface":"i1","to_router":"McCammon","weight":10},{"bandwidth":1000000,"bidirectional":true,"from_interface":"i1","from_router":"Idaho_Falls","latency":108,"to_interface":"i1","to_router":"St_Anthony","weight":10},{"bandwidth":1000000,"bidirectional":true,"from_interface":"i1","from_router":"Glenn's_Ferry","latency":65,"to_interface":"i0","to_router":"Hagerman","weight":10},{"bandwidth":1000000,"bidirectional":true,"from_interface":"i0","from_router":"Jack_Pot","latency":114,"to_interface":"i1","to_router":"Filer","weight":10},{"bandwidth":1000000,"bidirectional":true,"from_interface":"i1","from_router":"Hagerman","latency":64,"to_interface":"i2","to_router":"Filer","weight":10},{"bandwidth":1000000,"bidirectional":true,"from_interface":"i2","from_router":"St_Anthony","latency":87,"to_interface":"i0","to_router":"Dubois","weight":10},{"bandwidth":1000000,"bidirectional":true,"from_interface":"i1","from_router":"Dubois","latency":72,"to_interface":"i0","to_router":"Terreton","weight":10},{"bandwidth":1000000,"bidirectional":true,"from_interface":"i0","from_router":"Challis","latency":136,"to_interface":"i0","to_router":"Salmon","weight":10},{"bandwidth":1000000,"bidirectional":true,"from_interface":"i1","from_router":"Challis","latency":141,"to_interface":"i0","to_router":"Mackay","weight":10},{"bandwidth":1000000,"bidirectional":true,"from_interface":"i2","from_router":"Challis","latency":112,"to_interface":"i0","to_router":"Stanley","weight":10},{"bandwidth":1000000,"bidirectional":true,"from_interface":"i1","from_router":"Stanley","latency":79,"to_interface":"i1","to_router":"Galena","weight":10},{"bandwidth":1000000,"bidirectional":true,"from_interface":"i1","from_router":"Terreton","latency":81,"to_interface":"i0","to_router":"Howe","weight":10},{"bandwidth":1000000,"bidirectional":true,"from_interface":"i1","from_router":"Howe","latency":53,"to_interface":"i0","to_router":"Arco","weight":10},{"bandwidth":1000000,"bidirectional":true,"from_interface":"i1","from_router":"Arco","latency":71,"to_interface":"i1","to_router":"Mackay","weight":10},{"bandwidth":1000000,"bidirectional":true,"from_interface":"i0","from_router":"Halfway","latency":66,"to_interface":"i0","to_router":"Cambridge","weight":10},{"bandwidth":1000000,"bidirectional":true,"from_interface":"i0","from_router":"Payette","latency":18,"to_interface":"i1","to_router":"Fruitland","weight":10},{"bandwidth":1000000,"bidirectional":true,"from_interface":"i1","from_router":"Payette","latency":37,"to_interface":"i0","to_router":"Weiser","weight":10},{"bandwidth":1000000,"bidirectional":true,"from_interface":"i0","from_router":"Council","latency":60,"to_interface":"i0","to_router":"McCall","weight":10},{"bandwidth":1000000,"bidirectional":true,"from_interface":"i1","from_router":"Council","latency":23,"to_interface":"i0","to_router":"Mesa","weight":10},{"bandwidth":1000000,"bidirectional":true,"from_interface":"i1","from_router":"Cambridge","latency":25,"to_interface":"i0","to_router":"Midvale","weight":10},{"bandwidth":1000000,"bidirectional":true,"from_interface":"i2","from_router":"Cambridge","latency":36,"to_interface":"i1","to_router":"Mesa","weight":10},{"bandwidth":1000000,"bidirectional":true,"from_interface":"i2","from_router":"Mesa","latency":18,"to_interface":"i1","to_router":"Indian_Valley","weight":10},{"bandwidth":1000000,"bidirectional":true,"from_interface":"i1","from_router":"Midvale","latency":56,"to_interface":"i1","to_router":"Weiser","weight":10}],"name":"Syringa","routers":[{"interfaces":[{"names":["i0","i1"],"routing_table":{}}],"location":{"latitude":43.61211,"longitude":-116.39151},"name":"Meridian"},{"interfaces":[{"names":["i0","i1"],"routing_table":{}}],"location":{"latitude":43.8735,"longitude":-116.4993},"name":"Emmett"},{"interfaces":[{"names":["i0","i1"],"routing_table":{}}],"location":{"latitude":43.66294,"longitude":-116.68736},"name":"Caldwell"},{"interfaces":[{"names":["i0","i1"],"routing_table":{}}],"location":{"latitude":43.54072,"longitude":-116.56346},"name":"Nampa"},{"interfaces":[{"names":["i0","i1"],"routing_table":{}}],"location":{"latitude":43.13295,"longitude":-115.6912},"name":"Tipanuk"},{"interfaces":[{"names":["i0","i1"],"routing_table":{}}],"location":{"latitude":43.13295,"longitude":-115.6912},"name":"Mountain_Home"},{"interfaces":[{"names":["i0"],"routing_table":{}}],"location":{"latitude":43.68916,"longitude":-116.27071},"name":"Hidden_Springs"},{"interfaces":[{"names":["i0","i1","i2","i3","i4","i5","i6","i7"],"routing_table":{}}],"location":{"latitude":43.6135,"longitude":-116.20345},"name":"Boise"},{"interfaces":[{"names":["i0","i1"],"routing_table":{}}],"location":{"latitude":42.57325,"longitude":-112.87721},"name":"Rockland"},{"interfaces":[{"names":["i0","i1","i2"],"routing_table":{}}],"location":{"latitude":42.45575,"longitude":-112.56831},"name":"Arbon"},{"interfaces":[{"names":["i0","i1"],"routing_table":{}}],"location":{"latitude":43.34657,"longitude":-114.79173},"name":"Fairfield"},{"interfaces":[{"names":["i0"],"routing_table":{}}],"location":{"latitude":43.30768,"longitude":-113.94475},"name":"Carey"},{"interfaces":[{"names":["i0","i1"],"routing_table":{}}],"location":{"latitude":42.41269,"longitude":-113.57806},"name":"Albion"},{"interfaces":[{"names":["i0","i1"],"routing_table":{}}],"location":{"latitude":42.3063,"longitude":-113.36917},"name":"Malta"},{"interfaces":[{"names":["i0","i1"],"routing_table":{}}],"location":{"latitude":42.61908,"longitude":-113.67723},"name":"Rupert"},{"interfaces":[{"names":["i0","i1","i2"],"routing_table":{}}],"location":{"latitude":42.53574,"longitude":-113.79279},"name":"Burley"},{"interfaces":[{"names":["i0","i1"],"routing_table":{}}],"location":{"latitude":43.31242,"longitude":-111.79524},"name":"Bone"},{"interfaces":[{"names":["i0","i1","i2"],"routing_table":{}}],"location":{"latitude":43.5263,"longitude":-111.93302},"name":"Iona"},{"interfaces":[{"names":["i0"],"routing_table":{}}],"location":{"latitude":44.07158,"longitude":-111.44829},"name":"Ashton"},{"interfaces":[{"names":["i0"],"routing_table":{}}],"location":{"latitude":43.81447,"longitude":-111.1602},"name":"Tetonia"},{"interfaces":[{"names":["i0","i1"],"routing_table":{}}],"location":{"latitude":43.72325,"longitude":-111.11133},"name":"Driggs"},{"interfaces":[{"names":["i0","i1"],"routing_table":{}}],"location":{"latitude":43.6027,"longitude":-111.11133},"name":"Victor"},{"interfaces":[{"names":["i0"],"routing_table":{}}],"location":{"latitude":43.47993,"longitude":-110.76243},"name":"Jackson"},{"interfaces":[{"names":["i0","i1","i2"],"routing_table":{}}],"location":{"latitude":42.9827,"longitude":-111.04382},"name":"Freedom"},{"interfaces":[{"names":["i0"],"routing_table":{}}],"location":{"latitude":42.72493,"longitude":-110.93187},"name":"Afton"},{"interfaces":[{"names":["i0","i1","i2"],"routing_table":{}}],"location":{"latitude":42.90686,"longitude":-111.53078},"name":"Henry"},{"interfaces":[{"names":["i0"],"routing_table":{}}],"location":{"latitude":42.93879,"longitude":-114.71311},"name":"Gooding"},{"interfaces":[{"names":["i0","i1"],"routing_table":{}}],"location":{"latitude":43.51963,"longitude":-114.31532},"name":"Hailey"},{"interfaces":[{"names":["i0"],"routing_table":{}}],"name":"Coeur_D'Alene"},{"interfaces":[{"names":["i0","i1","i2"],"routing_table":{}}],"location":{"latitude":42.8713,"longitude":-112.44553},"name":"Pocatello"},{"interfaces":[{"names":["i0"],"routing_table":{}}],"location":{"latitude":43.19047,"longitude":-112.34498},"name":"Blackfoot"},{"interfaces":[{"names":["i0","i1"],"routing_table":{}}],"location":{"latitude":42.59713,"longitude":-113.23611},"name":"Raft_River"},{"interfaces":[{"names":["i0","i1","i2"],"routing_table":{}}],"name":"None"},{"interfaces":[{"names":["i0","i1","i2","i3"],"routing_table":{}}],"location":{"latitude":42.56297,"longitude":-114.46087},"name":"Twin_Falls"},{"interfaces":[{"names":["i0","i1","i2"],"routing_table":{}}],"location":{"latitude":42.65437,"longitude":-111.60467},"name":"Soda_Springs"},{"interfaces":[{"names":["i0"],"routing_table":{}}],"location":{"latitude":42.22715,"longitude":-111.40104},"name":"Paris"},{"interfaces":[{"names":["i0","i1","i2"],"routing_table":{}}],"location":{"latitude":42.61936,"longitude":-112.01107},"name":"Lava_Hot_Springs"},{"interfaces":[{"names":["i0"],"routing_table":{}}],"location":{"latitude":42.42853,"longitude":-112.12441},"name":"Downey"},{"interfaces":[{"names":["i0"],"routing_table":{}}],"location":{"latitude":42.19159,"longitude":-112.2508},"name":"Malad_City"},{"interfaces":[{"names":["i0","i1"],"routing_table":{}}],"location":{"latitude":42.65047,"longitude":-112.19302},"name":"McCammon"},{"interfaces":[{"names":["i0"],"routing_table":{}}],"location":{"latitude":42.93879,"longitude":-114.71311},"name":"Gooding2"},{"interfaces":[{"names":["i0","i1"],"routing_table":{}}],"location":{"latitude":43.46658,"longitude":-112.03414},"name":"Idaho_Falls"},{"interfaces":[{"names":["i0"],"routing_table":{}}],"name":"Cheyenne"},{"interfaces":[{"names":["i0","i1"],"routing_table":{}}],"location":{"latitude":42.9549,"longitude":-115.3009},"name":"Glenn's_Ferry"},{"interfaces":[{"names":["i0"],"routing_table":{}}],"location":{"latitude":41.98324,"longitude":-114.67476},"name":"Jack_Pot"},{"interfaces":[{"names":["i0"],"routing_table":{}}],"name":"Salt_Lake_City"},{"interfaces":[{"names":["i0"],"routing_table":{}}],"location":{"latitude":42.24325,"longitude":-113.88196},"name":"Oakley"},{"interfaces":[{"names":["i0","i1"],"routing_table":{}}],"location":{"latitude":42.81212,"longitude":-114.89867},"name":"Hagerman"},{"interfaces":[{"names":["i0","i1"],"routing_table":{}}],"location":{"latitude":42.78602,"longitude":-112.85444},"name":"American_Falls"},{"interfaces":[{"names":["i0","i1","i2"],"routing_table":{}}],"location":{"latitude":43.9663,"longitude":-111.68218},"name":"St_Anthony"},{"interfaces":[{"names":["i0","i1"],"routing_table":{}}],"location":{"latitude":44.1763,"longitude":-112.23082},"name":"Dubois"},{"interfaces":[{"names":["i0","i1","i2"],"routing_table":{}}],"name":"None2"},{"interfaces":[{"names":["i0","i1","i2"],"routing_table":{}}],"location":{"latitude":44.50464,"longitude":-114.23173},"name":"Challis"},{"interfaces":[{"names":["i0","i1"],"routing_table":{}}],"location":{"latitude":44.21742,"longitude":-114.93858},"name":"Stanley"},{"interfaces":[{"names":["i0","i1"],"routing_table":{}}],"location":{"latitude":43.8713,"longitude":-114.65729},"name":"Galena"},{"interfaces":[{"names":["i0"],"routing_table":{}}],"name":"Missoula"},{"interfaces":[{"names":["i0","i1"],"routing_table":{}}],"location":{"latitude":43.84157,"longitude":-112.43637},"name":"Terreton"},{"interfaces":[{"names":["i0","i1"],"routing_table":{}}],"location":{"latitude":43.78352,"longitude":-113.00472},"name":"Howe"},{"interfaces":[{"names":["i0","i1"],"routing_table":{}}],"location":{"latitude":43.63657,"longitude":-113.30028},"name":"Arco"},{"interfaces":[{"names":["i0","i1"],"routing_table":{}}],"location":{"latitude":43.91463,"longitude":-113.61336},"name":"Mackay"},{"interfaces":[{"names":["i0"],"routing_table":{}}],"name":"Halfway"},{"interfaces":[{"names":["i0","i1","i2"],"routing_table":{}}],"location":{"latitude":42.57019,"longitude":-114.60782},"name":"Filer"},{"interfaces":[{"names":["i0"],"routing_table":{}}],"name":"Spokane"},{"interfaces":[{"names":["i0"],"routing_table":{}}],"location":{"latitude":42.09631,"longitude":-111.87662},"name":"Preston"},{"interfaces":[{"names":["i0","i1"],"routing_table":{}}],"location":{"latitude":44.07822,"longitude":-116.93377},"name":"Payette"},{"interfaces":[{"names":["i0","i1"],"routing_table":{}}],"location":{"latitude":44.00766,"longitude":-116.91655},"name":"Fruitland"},{"interfaces":[{"names":["i0"],"routing_table":{}}],"location":{"latitude":45.17575,"longitude":-113.8959},"name":"Salmon"},{"interfaces":[{"names":["i0","i1"],"routing_table":{}}],"location":{"latitude":44.72989,"longitude":-116.4382},"name":"Council"},{"interfaces":[{"names":["i0"],"routing_table":{}}],"location":{"latitude":44.91101,"longitude":-116.09874},"name":"McCall"},{"interfaces":[{"names":["i0","i1","i2"],"routing_table":{}}],"location":{"latitude":44.57266,"longitude":-116.67599},"name":"Cambridge"},{"interfaces":[{"names":["i0","i1","i2"],"routing_table":{}}],"location":{"latitude":44.62878,"longitude":-116.4507},"name":"Mesa"},{"interfaces":[{"names":["i0","i1"],"routing_table":{}}],"location":{"latitude":44.55711,"longitude":-116.43403},"name":"Indian_Valley"},{"interfaces":[{"names":["i0","i1"],"routing_table":{}}],"location":{"latitude":44.47127,"longitude":-116.73461},"name":"Midvale"},{"interfaces":[{"names":["i0","i1"],"routing_table":{}}],"location":{"latitude":44.251,"longitude":-116.96933},"name":"Weiser"}]}}
