{"network":{"links":[{"bandwidth":1000000,"bidirectional":true,"from_interface":"i0","from_router":"Ruzombernk","latency":72,"to_interface":"i0","to_router":"Banska_Bystrica","weight":10},{"bandwidth":1000000,"bidirectional":true,"from_interface":"i0","from_router":"None","latency":126,"to_interface":"i1","to_router":"Banska_Bystrica","weight":10},{"bandwidth":1000000,"bidirectional":true,"from_interface":"i0","from_router":"Svit","latency":147,"to_interface":"i0","to_router":"Kosice","weight":10},{"bandwidth":1000000,"bidirectional":true,"from_interface":"i0","from_router":"Liptovdky_Mikulas","latency":91,"to_interface":"i2","to_router":"Banska_Bystrica","weight":10},{"bandwidth":1000000,"bidirectional":true,"from_interface":"i0","from_router":"Detva","latency":87,"to_interface":"i0","to_router":"Rimavska_Sobota","weight":10},{"bandwidth":1000000,"bidirectional":true,"from_interface":"i1","from_router":"Detva","latency":49,"to_interface":"i3","to_router":"Banska_Bystrica","weight":10},{"bandwidth":1000000,"bidirectional":true,"from_interface":"i0","from_router":"Zvolen","latency":32,"to_interface":"i4","to_router":"Banska_Bystrica","weight":10},{"bandwidth":1000000,"bidirectional":true,"from_interface":"i0","from_router":"Zilina","latency":109,"to_interface":"i0","to_router":"Trencin","weight":10},{"bandwidth":1000000,"bidirectional":true,"from_interface":"i1","from_router":"Zilina","latency":196,"to_interface":"i0","to_router":"Poprad","weight":10},{"bandwidth":1000000,"bidirectional":true,"from_interface":"i2","from_router":"Zilina","latency":108,"to_interface":"i5","to_router":"Banska_Bystrica","weight":10},{"bandwidth":1000000,"bidirectional":true,"from_interface":"i0","from_router":"Namestovo","latency":135,"to_interface":"i6","to_router":"Banska_Bystrica","weight":10},{"bandwidth":1000000,"bidirectional":true,"from_interface":"i0","from_router":"Lucenec","latency":102,"to_interface":"i7","to_router":"Banska_Bystrica","weight":10},{"bandwidth":1000000,"bidirectional":true,"from_interface":"i0","from_router":"Komarno","latency":149,"to_interface":"i0","to_router":"Bratislava","weight":10},{"bandwidth":1000000,"bidirectional":true,"from_interface":"i0","from_router":"Brno_Warsaw","latency":126,"to_interface":"i1","to_router":"Bratislava","weight":10},{"bandwidth":1000000,"bidirectional":true,"from_interface":"i0","from_router":"Prague_Frankfurt","latency":126,"to_interface":"i2","to_router":"Bratislava","weight":10},{"bandwidth":1000000,"bidirectional":true,"from_interface":"i0","from_router":"Vienna","latency":126,"to_interface":"i3","to_router":"Bratislava","weight":10},{"bandwidth":1000000,"bidirectional":true,"from_interface":"i0","from_router":"Gyor_Budapest","latency":126,"to_interface":"i4","to_router":"Bratislava","weight":10},{"bandwidth":1000000,"bidirectional":true,"from_interface":"i0","from_router":"Nove_Zamky","latency":139,"to_interface":"i5","to_router":"Bratislava","weight":10},{"bandwidth":1000000,"bidirectional":true,"from_interface":"i0","from_router":"Nitra","latency":129,"to_interface":"i6","to_router":"Bratislava","weight":10},{"bandwidth":1000000,"bidirectional":true,"from_interface":"i1","from_router":"Trencin","latency":184,"to_interface":"i7","to_router":"Bratislava","weight":10},{"bandwidth":1000000,"bidirectional":true,"from_interface":"i0","from_router":"Topolcany","latency":158,"to_interface":"i8","to_router":"Bratislava","weight":10},{"bandwidth":1000000,"bidirectional":true,"from_interface":"i0","from_router":"Novaky","latency":78,"to_interface":"i8","to_router":"Banska_Bystrica","weight":10},{"bandwidth":1000000,"bidirectional":true,"from_interface":"i0","from_router":"Prievidza","latency":68,"to_interface":"i9","to_router":"Banska_Bystrica","weight":10},{"bandwidth":1000000,"bidirectional":true,"from_interface":"i0","from_router":"None2","latency":126,"to_interface":"i9","to_router":"Bratislava","weight":10},{"bandwidth":1000000,"bidirectional":true,"from_interface":"i0","from_router":"None3","latency":126,"to_interface":"i10","to_router":"Bratislava","weight":10},{"bandwidth":1000000,"bidirectional":true,"from_interface":"i0","from_router":"Piestany","latency":127,"to_interface":"i11","to_router":"Bratislava","weight":10},{"bandwidth":1000000,"bidirectional":true,"from_interface":"i0","from_router":"Nove_Mest_nad_Vahom","latency":148,"to_interface":"i12","to_router":"Bratislava","weight":10},{"bandwidth":1000000,"bidirectional":true,"from_interface":"i0","from_router":"Spisska","latency":42,"to_interface":"i1","to_router":"Poprad","weight":10},{"bandwidth":1000000,"bidirectional":true,"from_interface":"i1","from_router":"Spisska","latency":98,"to_interface":"i1","to_router":"Kosice","weight":10},{"bandwidth":1000000,"bidirectional":true,"from_interface":"i2","from_router":"Poprad","latency":120,"to_interface":"i0","to_router":"Presov","weight":10},{"bandwidth":1000000,"bidirectional":true,"from_interface":"i10","from_router":"Banska_Bystrica","latency":278,"to_interface":"i13","to_router":"Bratislava","weight":10},{"bandwidth":1000000,"bidirectional":true,"from_interface":"i14","from_router":"Bratislava","latency":524,"to_interface":"i2","to_router":"Kosice","weight":10},{"bandwidth":1000000,"bidirectional":true,"from_interface":"i3","from_router":"Kosice","latency":119,"to_interface":"i0","to_router":"Svidnik","weight":10},{"bandwidth":1000000,"bidirectional":true,"from_interface":"i4","from_router":"Kosice","latency":95,"to_interface":"i0","to_router":"Humenne","weight":10},{"bandwidth":1000000,"bidirectional":true,"from_interface":"i5","from_router":"Kosice","latency":88,"to_interface":"i0","to_router":"Michalovce","weight":10},{"bandwidth":1000000,"bidirectional":true,"from_interface":"i6","from_router":"Kosice","latency":57,"to_interface":"i1","to_router":"Presov","weight":10},{"bandwidth":1000000,"bidirectional":true,"from_interface":"i2","from_router":"Presov","latency":57,"to_interface":"i0","to_router":"Bardejov","weight":10}],"name":"GtsSlovakia","routers":[{"interfaces":[{"names":["i0"],"routing_table":{}}],"location":{"latitude":49.08333,"longitude":19.31667},"name":"Ruzombernk"},{"interfaces":[{"names":["i0"],"routing_table":{}}],"name":"None"},{"interfaces":[{"names":["i0"],"routing_table":{}}],"location":{"latitude":49.06014,"longitude":20.20695},"name":"Svit"},{"interfaces":[{"names":["i0"],"routing_table":{}}],"location":{"latitude":49.08061,"longitude":19.62218},"name":"Liptovdky_Mikulas"},{"interfaces":[{"names":["i0","i1"],"routing_table":{}}],"location":{"latitude":48.56667,"longitude":19.41667},"name":"Detva"},{"interfaces":[{"names":["i0"],"routing_table":{}}],"location":{"latitude":48.58333,"longitude":19.13333},"name":"Zvolen"},{"interfaces":[{"names":["i0","i1","i2"],"routing_table":{}}],"location":{"latitude":49.22315,"longitude":18.73941},"name":"Zilina"},{"interfaces":[{"names":["i0"],"routing_table":{}}],"location":{"latitude":49.4,"longitude":19.5},"name":"Namestovo"},{"interfaces":[{"names":["i0"],"routing_table":{}}],"location":{"latitude":48.38333,"longitude":20.03333},"name":"Rimavska_Sobota"},{"interfaces":[{"names":["i0"],"routing_table":{}}],"location":{"latitude":48.33333,"longitude":19.66667},"name":"Lucenec"},{"interfaces":[{"names":["i0"],"routing_table":{}}],"location":{"latitude":47.76356,"longitude":18.12263},"name":"Komarno"},{"interfaces":[{"names":["i0"],"routing_table":{}}],"name":"Brno_Warsaw"},{"interfaces":[{"names":["i0"],"routing_table":{}}],"name":"Prague_Frankfurt"},{"interfaces":[{"names":["i0"],"routing_table":{}}],"name":"Vienna"},{"interfaces":[{"names":["i0"],"routing_table":{}}],"name":"Gyor_Budapest"},{"interfaces":[{"names":["i0"],"routing_table":{}}],"location":{"latitude":47.98544,"longitude":18.16195},"name":"Nove_Zamky"},{"interfaces":[{"names":["i0"],"routing_table":{}}],"location":{"latitude":48.30763,"longitude":18.08453},"name":"Nitra"},{"interfaces":[{"names":["i0","i1"],"routing_table":{}}],"location":{"latitude":48.89452,"longitude":18.04436},"name":"Trencin"},{"interfaces":[{"names":["i0"],"routing_table":{}}],"location":{"latitude":48.56667,"longitude":18.18333},"name":"Topolcany"},{"interfaces":[{"names":["i0"],"routing_table":{}}],"location":{"latitude":48.71667,"longitude":18.55},"name":"Novaky"},{"interfaces":[{"names":["i0"],"routing_table":{}}],"location":{"latitude":48.76667,"longitude":18.63333},"name":"Prievidza"},{"interfaces":[{"names":["i0"],"routing_table":{}}],"name":"None2"},{"interfaces":[{"names":["i0"],"routing_table":{}}],"name":"None3"},{"interfaces":[{"names":["i0"],"routing_table":{}}],"location":{"latitude":48.6,"longitude":17.83333},"name":"Piestany"},{"interfaces":[{"names":["i0"],"routing_table":{}}],"location":{"latitude":48.75763,"longitude":17.8309},"name":"Nove_Mest_nad_Vahom"},{"interfaces":[{"names":["i0","i1"],"routing_table":{}}],"location":{"latitude":48.95,"longitude":20.56667},"name":"Spisska"},{"interfaces":[{"names":["i0","i1","i2"],"routing_table":{}}],"location":{"latitude":49.05,"longitude":20.3},"name":"Poprad"},{"interfaces":[{"names":["i0","i1","i2","i3","i4","i5","i6","i7","i8","i9","i10"],"routing_table":{}}],"location":{"latitude":48.73333,"longitude":19.15},"name":"Banska_Bystrica"},{"interfaces":[{"names":["i0","i1","i2","i3","i4","i5","i6","i7","i8","i9","i10","i11","i12","i13","i14"],"routing_table":{}}],"location":{"latitude":48.14816,"longitude":17.10674},"name":"Bratislava"},{"interfaces":[{"names":["i0","i1","i2","i3","i4","i5","i6"],"routing_table":{}}],"location":{"latitude":48.71667,"longitude":21.25},"name":"Kosice"},{"interfaces":[{"names":["i0","i1","i2"],"routing_table":{}}],"location":{"latitude":49.0,"longitude":21.25},"name":"Presov"},{"interfaces":[{"names":["i0"],"routing_table":{}}],"location":{"latitude":49.28333,"longitude":21.28333},"name":"Bardejov"},{"interfaces":[{"names":["i0"],"routing_table":{}}],"location":{"latitude":49.3,"longitude":21.56667},"name":"Svidnik"},{"interfaces":[{"names":["i0"],"routing_table":{}}],"location":{"latitude":48.93333,"longitude":21.91667},"name":"Humenne"},{"interfaces":[{"names":["i0"],"routing_table":{}}],"location":{"latitude":48.75,"longitude":21.93333},"name":"Michalovce"}]}}
