{"network":{"links":[{"bandwidth":1000000,"bidirectional":true,"from_interface":"i0","from_router":"Las_Vegas","latency":618,"to_interface":"i0","to_router":"Los_Angeles","weight":10},{"bandwidth":1000000,"bidirectional":true,"from_interface":"i1","from_router":"Las_Vegas","latency":691,"to_interface":"i0","to_router":"Phoenix","weight":10},{"bandwidth":1000000,"bidirectional":true,"from_interface":"i2","from_router":"Las_Vegas","latency":975,"to_interface":"i0","to_router":"Salt_Lake_City","weight":10},{"bandwidth":1000000,"bidirectional":true,"from_interface":"i1","from_router":"Los_Angeles","latency":961,"to_interface":"i1","to_router":"Phoenix","weight":10},{"bandwidth":1000000,"bidirectional":true,"from_interface":"i2","from_router":"Los_Angeles","latency":832,"to_interface":"i0","to_router":"Santa_Clara","weight":10},{"bandwidth":1000000,"bidirectional":true,"from_interface":"i0","from_router":"Dallas","latency":2155,"to_interface":"i0","to_router":"Chicago","weight":10},{"bandwidth":1000000,"bidirectional":true,"from_interface":"i1","from_router":"Dallas","latency":2374,"to_interface":"i2","to_router":"Phoenix","weight":10},{"bandwidth":1000000,"bidirectional":true,"from_interface":"i2","from_router":"Dallas","latency":609,"to_interface":"i0","to_router":"Houston","weight":10},{"bandwidth":1000000,"bidirectional":true,"from_interface":"i3","from_router":"Dallas","latency":3173,"to_interface":"i0","to_router":"Washington_DC","weight":10},{"bandwidth":1000000,"bidirectional":true,"from_interface":"i1","from_router":"Santa_Clara","latency":37,"to_interface":"i0","to_router":"Palo_Alto","weight":10},{"bandwidth":1000000,"bidirectional":true,"from_interface":"i0","from_router":"Portland","latency":326,"to_interface":"i0","to_router":"Tacoma","weight":10},{"bandwidth":1000000,"bidirectional":true,"from_interface":"i1","from_router":"Portland","latency":1300,"to_interface":"i0","to_router":"Sacramento","weight":10},{"bandwidth":1000000,"bidirectional":true,"from_interface":"i1","from_router":"Sacramento","latency":1615,"to_interface":"i1","to_router":"Tacoma","weight":10},{"bandwidth":1000000,"bidirectional":true,"from_interface":"i2","from_router":"Sacramento","latency":1431,"to_interface":"i1","to_router":"Salt_Lake_City","weight":10},{"bandwidth":1000000,"bidirectional":true,"from_interface":"i3","from_router":"Sacramento","latency":236,"to_interface":"i1","to_router":"Palo_Alto","weight":10},{"bandwidth":1000000,"bidirectional":true,"from_interface":"i2","from_router":"Palo_Alto","latency":1887,"to_interface":"i0","to_router":"Seattle","weight":10},{"bandwidth":1000000,"bidirectional":true,"from_interface":"i2","from_router":"Tacoma","latency":71,"to_interface":"i1","to_router":"Seattle","weight":10},{"bandwidth":1000000,"bidirectional":true,"from_interface":"i2","from_router":"Seattle","latency":617,"to_interface":"i0","to_router":"Spokane","weight":10},{"bandwidth":1000000,"bidirectional":true,"from_interface":"i3","from_router":"Seattle","latency":1089,"to_interface":"i0","to_router":"Boise","weight":10},{"bandwidth":1000000,"bidirectional":true,"from_interface":"i4","from_router":"Seattle","latency":1880,"to_interface":"i2","to_router":"Salt_Lake_City","weight":10},{"bandwidth":1000000,"bidirectional":true,"from_interface":"i5","from_router":"Seattle","latency":3733,"to_interface":"i0","to_router":"Minneapolis","weight":10},{"bandwidth":1000000,"bidirectional":true,"from_interface":"i0","from_router":"Atlanta","latency":1457,"to_interface":"i1","to_router":"Washington_DC","weight":10},{"bandwidth":1000000,"bidirectional":true,"from_interface":"i1","from_router":"Atlanta","latency":1882,"to_interface":"i1","to_router":"Houston","weight":10},{"bandwidth":1000000,"bidirectional":true,"from_interface":"i1","from_router":"Spokane","latency":770,"to_interface":"i1","to_router":"Boise","weight":10},{"bandwidth":1000000,"bidirectional":true,"from_interface":"i2","from_router":"Boise","latency":798,"to_interface":"i3","to_router":"Salt_Lake_City","weight":10},{"bandwidth":1000000,"bidirectional":true,"from_interface":"i4","from_router":"Salt_Lake_City","latency":3372,"to_interface":"i1","to_router":"Chicago","weight":10},{"bandwidth":1000000,"bidirectional":true,"from_interface":"i1","from_router":"Minneapolis","latency":956,"to_interface":"i2","to_router":"Chicago","weight":10},{"bandwidth":1000000,"bidirectional":true,"from_interface":"i3","from_router":"Chicago","latency":1395,"to_interface":"i0","to_router":"Rochester","weight":10},{"bandwidth":1000000,"bidirectional":true,"from_interface":"i1","from_router":"Rochester","latency":657,"to_interface":"i0","to_router":"Newark","weight":10},{"bandwidth":1000000,"bidirectional":true,"from_interface":"i1","from_router":"Newark","latency":536,"to_interface":"i2","to_router":"Washington_DC","weight":10}],"name":"EliBackbone","routers":[{"interfaces":[{"names":["i0","i1","i2"],"routing_table":{}}],"location":{"latitude":36.17497,"longitude":-115.13722},"name":"Las_Vegas"},{"interfaces":[{"names":["i0","i1","i2"],"routing_table":{}}],"location":{"latitude":34.05223,"longitude":-118.24368},"name":"Los_Angeles"},{"interfaces":[{"names":["i0","i1","i2","i3"],"routing_table":{}}],"location":{"latitude":32.78306,"longitude":-96.80667},"name":"Dallas"},{"interfaces":[{"names":["i0","i1","i2"],"routing_table":{}}],"location":{"latitude":33.44838,"longitude":-112.07404},"name":"Phoenix"},{"interfaces":[{"names":["i0","i1"],"routing_table":{}}],"location":{"latitude":37.35411,"longitude":-121.95524},"name":"Santa_Clara"},{"interfaces":[{"names":["i0","i1"],"routing_table":{}}],"location":{"latitude":45.52345,"longitude":-122.67621},"name":"Portland"},{"interfaces":[{"names":["i0","i1","i2","i3"],"routing_table":{}}],"location":{"latitude":38.58157,"longitude":-121.4944},"name":"Sacramento"},{"interfaces":[{"names":["i0","i1","i2"],"routing_table":{}}],"location":{"latitude":37.44188,"longitude":-122.14302},"name":"Palo_Alto"},{"interfaces":[{"names":["i0","i1","i2"],"routing_table":{}}],"location":{"latitude":47.25288,"longitude":-122.44429},"name":"Tacoma"},{"interfaces":[{"names":["i0","i1","i2","i3","i4","i5"],"routing_table":{}}],"location":{"latitude":47.60621,"longitude":-122.33207},"name":"Seattle"},{"interfaces":[{"names":["i0","i1"],"routing_table":{}}],"location":{"latitude":33.749,"longitude":-84.38798},"name":"Atlanta"},{"interfaces":[{"names":["i0","i1"],"routing_table":{}}],"location":{"latitude":29.76328,"longitude":-95.36327},"name":"Houston"},{"interfaces":[{"names":["i0","i1"],"routing_table":{}}],"location":{"latitude":47.65878,"longitude":-117.42605},"name":"Spokane"},{"interfaces":[{"names":["i0","i1","i2"],"routing_table":{}}],"location":{"latitude":43.6135,"longitude":-116.20345},"name":"Boise"},{"interfaces":[{"names":["i0","i1","i2","i3","i4"],"routing_table":{}}],"location":{"latitude":40.76078,"longitude":-111.89105},"name":"Salt_Lake_City"},{"interfaces":[{"names":["i0","i1"],"routing_table":{}}],"location":{"latitude":44.97997,"longitude":-93.26384},"name":"Minneapolis"},{"interfaces":[{"names":["i0","i1","i2","i3"],"routing_table":{}}],"location":{"latitude":41.85003,"longitude":-87.65005},"name":"Chicago"},{"interfaces":[{"names":["i0","i1"],"routing_table":{}}],"location":{"latitude":43.15478,"longitude":-77.61556},"name":"Rochester"},{"interfaces":[{"names":["i0","i1"],"routing_table":{}}],"location":{"latitude":40.73566,"longitude":-74.17237},"name":"Newark"},{"interfaces":[{"names":["i0","i1","i2"],"routing_table":{}}],"location":{"latitude":38.89511,"longitude":-77.03637},"name":"Washington_DC"}]}}
