{"network":{"links":[{"bandwidth":10000000,"bidirectional":true,"from_interface":"i0","from_router":"UiO","latency":5,"to_interface":"i0","to_router":"UiO2","weight":10},{"bandwidth":10000000,"bidirectional":true,"from_interface":"i1","from_router":"UiO","latency":5,"to_interface":"i0","to_router":"UiO_St_Olavsplass_5","weight":10},{"bandwidth":1000000,"bidirectional":true,"from_interface":"i2","from_router":"UiO","latency":131,"to_interface":"i0","to_router":"HH_Kongsvinger","weight":100},{"bandwidth":1000000,"bidirectional":true,"from_interface":"i3","from_router":"UiO","latency":185,"to_interface":"i0","to_router":"HiT_Bo","weight":100},{"bandwidth":10000000,"bidirectional":true,"from_interface":"i4","from_router":"UiO","latency":512,"to_interface":"i0","to_router":"UiB_BT","weight":10},{"bandwidth":1000000,"bidirectional":true,"from_interface":"i5","from_router":"UiO","latency":757,"to_interface":"i0","to_router":"UMB_As","weight":100},{"bandwidth":1000000,"bidirectional":true,"from_interface":"i1","from_router":"UiO2","latency":126,"to_interface":"i0","to_router":"HiO_Sarpsborg","weight":100},{"bandwidth":10000000,"bidirectional":true,"from_interface":"i2","from_router":"UiO2","latency":657,"to_interface":"i0","to_router":"NTNU_Realfagbygget","weight":10},{"bandwidth":1000000,"bidirectional":true,"from_interface":"i3","from_router":"UiO2","latency":34,"to_interface":"i0","to_router":"UNIK_Kjeller","weight":100},{"bandwidth":10000000,"bidirectional":true,"from_interface":"i4","from_router":"UiO2","latency":5,"to_interface":"i1","to_router":"UiO_St_Olavsplass_5","weight":10},{"bandwidth":1000000,"bidirectional":true,"from_interface":"i0","from_router":"HiG_Gjovik","latency":67,"to_interface":"i0","to_router":"HiL_Lillehammer","weight":100},{"bandwidth":1000000,"bidirectional":true,"from_interface":"i1","from_router":"HiG_Gjovik","latency":168,"to_interface":"i2","to_router":"UiO_St_Olavsplass_5","weight":100},{"bandwidth":2500000,"bidirectional":true,"from_interface":"i3","from_router":"UiO_St_Olavsplass_5","latency":512,"to_interface":"i1","to_router":"UiB_BT","weight":40},{"bandwidth":1000000,"bidirectional":true,"from_interface":"i4","from_router":"UiO_St_Olavsplass_5","latency":64,"to_interface":"i0","to_router":"HiBU_Drammen","weight":100},{"bandwidth":10000000,"bidirectional":true,"from_interface":"i5","from_router":"UiO_St_Olavsplass_5","latency":657,"to_interface":"i0","to_router":"NTNU_Hovedbygget","weight":10},{"bandwidth":2500000,"bidirectional":true,"from_interface":"i6","from_router":"UiO_St_Olavsplass_5","latency":424,"to_interface":"i0","to_router":"UiA_Kristiansand","weight":40},{"bandwidth":1000000,"bidirectional":true,"from_interface":"i0","from_router":"Statenskartverkgeodesi","latency":5,"to_interface":"i0","to_router":"HiBu_Honefoss","weight":100},{"bandwidth":1000000,"bidirectional":true,"from_interface":"i0","from_router":"HiBU_Kongsberg","latency":58,"to_interface":"i1","to_router":"HiBU_Drammen","weight":100},{"bandwidth":1000000,"bidirectional":true,"from_interface":"i1","from_router":"HiBU_Kongsberg","latency":46,"to_interface":"i0","to_router":"HiT_Notodden","weight":100},{"bandwidth":1000000,"bidirectional":true,"from_interface":"i2","from_router":"HiBU_Kongsberg","latency":113,"to_interface":"i1","to_router":"HiBu_Honefoss","weight":100},{"bandwidth":1000000,"bidirectional":true,"from_interface":"i1","from_router":"UNIK_Kjeller","latency":5,"to_interface":"i0","to_router":"HiAK_Kjeller","weight":100},{"bandwidth":1000000,"bidirectional":true,"from_interface":"i2","from_router":"UNIK_Kjeller","latency":84,"to_interface":"i2","to_router":"HiBu_Honefoss","weight":100},{"bandwidth":10000000,"bidirectional":true,"from_interface":"i0","from_router":"UiTo","latency":5,"to_interface":"i0","to_router":"UiTo2","weight":10},{"bandwidth":10000000,"bidirectional":true,"from_interface":"i1","from_router":"UiTo","latency":1315,"to_interface":"i1","to_router":"NTNU_Realfagbygget","weight":10},{"bandwidth":10000000,"bidirectional":true,"from_interface":"i2","from_router":"UiTo","latency":228,"to_interface":"i0","to_router":"HiH_Harstad","weight":10},{"bandwidth":1000000,"bidirectional":true,"from_interface":"i3","from_router":"UiTo","latency":287,"to_interface":"i0","to_router":"HiF_Alta","weight":100},{"bandwidth":1000000,"bidirectional":true,"from_interface":"i0","from_router":"HiN_Narvik","latency":250,"to_interface":"i1","to_router":"UiTo2","weight":100},{"bandwidth":1000000,"bidirectional":true,"from_interface":"i1","from_router":"HiN_Narvik","latency":94,"to_interface":"i1","to_router":"HiH_Harstad","weight":100},{"bandwidth":1000000,"bidirectional":true,"from_interface":"i2","from_router":"HiN_Narvik","latency":305,"to_interface":"i0","to_router":"HBO_Bodo","weight":100},{"bandwidth":1000000,"bidirectional":true,"from_interface":"i2","from_router":"HiBU_Drammen","latency":70,"to_interface":"i0","to_router":"HVE_Borre","weight":100},{"bandwidth":1000000,"bidirectional":true,"from_interface":"i1","from_router":"HVE_Borre","latency":73,"to_interface":"i1","to_router":"HiO_Sarpsborg","weight":100},{"bandwidth":1000000,"bidirectional":true,"from_interface":"i2","from_router":"HVE_Borre","latency":43,"to_interface":"i0","to_router":"HVE_Eik","weight":100},{"bandwidth":1000000,"bidirectional":true,"from_interface":"i3","from_router":"HVE_Borre","latency":81,"to_interface":"i0","to_router":"HVE_Larvik","weight":100},{"bandwidth":1000000,"bidirectional":true,"from_interface":"i0","from_router":"HiF_Vadso","latency":72,"to_interface":"i0","to_router":"HiF_Kirkenes","weight":100},{"bandwidth":1000000,"bidirectional":true,"from_interface":"i1","from_router":"HiF_Vadso","latency":397,"to_interface":"i0","to_router":"HiF_Hammerfest","weight":100},{"bandwidth":1000000,"bidirectional":true,"from_interface":"i1","from_router":"HiF_Kirkenes","latency":301,"to_interface":"i0","to_router":"UiTo_Karasjok","weight":100},{"bandwidth":1000000,"bidirectional":true,"from_interface":"i1","from_router":"HiF_Hammerfest","latency":356,"to_interface":"i2","to_router":"UiTo2","weight":100},{"bandwidth":1000000,"bidirectional":true,"from_interface":"i2","from_router":"HiF_Hammerfest","latency":136,"to_interface":"i1","to_router":"HiF_Alta","weight":100},{"bandwidth":1000000,"bidirectional":true,"from_interface":"i2","from_router":"HiF_Alta","latency":182,"to_interface":"i0","to_router":"SA/SH_Kautokeino","weight":100},{"bandwidth":1000000,"bidirectional":true,"from_interface":"i0","from_router":"HSH_Stord","latency":124,"to_interface":"i0","to_router":"UiB_Hoyteklogibygget","weight":100},{"bandwidth":1000000,"bidirectional":true,"from_interface":"i1","from_router":"HSH_Stord","latency":70,"to_interface":"i0","to_router":"HSH_Haugesund","weight":100},{"bandwidth":1000000,"bidirectional":true,"from_interface":"i1","from_router":"UiB_Hoyteklogibygget","latency":227,"to_interface":"i0","to_router":"HSF_Songdal","weight":100},{"bandwidth":2500000,"bidirectional":true,"from_interface":"i2","from_router":"UiB_Hoyteklogibygget","latency":397,"to_interface":"i0","to_router":"HiA_Alesund","weight":40},{"bandwidth":10000000,"bidirectional":true,"from_interface":"i3","from_router":"UiB_Hoyteklogibygget","latency":720,"to_interface":"i1","to_router":"NTNU_Hovedbygget","weight":10},{"bandwidth":10000000,"bidirectional":true,"from_interface":"i4","from_router":"UiB_Hoyteklogibygget","latency":5,"to_interface":"i2","to_router":"UiB_BT","weight":10},{"bandwidth":1000000,"bidirectional":true,"from_interface":"i0","from_router":"HiT_Porsgrunn","latency":82,"to_interface":"i1","to_router":"HiT_Bo","weight":100},{"bandwidth":1000000,"bidirectional":true,"from_interface":"i1","from_router":"HiT_Porsgrunn","latency":156,"to_interface":"i0","to_router":"UiA_Arendal","weight":100},{"bandwidth":1000000,"bidirectional":true,"from_interface":"i1","from_router":"UiA_Arendal","latency":33,"to_interface":"i0","to_router":"UiA_Grimstad","weight":100},{"bandwidth":1000000,"bidirectional":true,"from_interface":"i0","from_router":"Hit_Rauland","latency":119,"to_interface":"i2","to_router":"HiT_Bo","weight":100},{"bandwidth":1000000,"bidirectional":true,"from_interface":"i1","from_router":"UiA_Grimstad","latency":73,"to_interface":"i1","to_router":"UiA_Kristiansand","weight":100},{"bandwidth":1000000,"bidirectional":true,"from_interface":"i2","from_router":"UiA_Kristiansand","latency":264,"to_interface":"i3","to_router":"HiT_Bo","weight":100},{"bandwidth":2500000,"bidirectional":true,"from_interface":"i3","from_router":"UiA_Kristiansand","latency":271,"to_interface":"i0","to_router":"UiS_Stavanger","weight":40},{"bandwidth":2500000,"bidirectional":true,"from_interface":"i1","from_router":"UiS_Stavanger","latency":26,"to_interface":"i0","to_router":"VetHS_Sandnes","weight":40},{"bandwidth":2500000,"bidirectional":true,"from_interface":"i2","from_router":"UiS_Stavanger","latency":271,"to_interface":"i3","to_router":"UiB_BT","weight":40},{"bandwidth":1000000,"bidirectional":true,"from_interface":"i3","from_router":"UiS_Stavanger","latency":98,"to_interface":"i1","to_router":"HSH_Haugesund","weight":100},{"bandwidth":10000000,"bidirectional":true,"from_interface":"i3","from_router":"UiTo2","latency":1315,"to_interface":"i2","to_router":"NTNU_Hovedbygget","weight":10},{"bandwidth":1000000,"bidirectional":true,"from_interface":"i0","from_router":"Longyearbyen_Skole","latency":5,"to_interface":"i0","to_router":"UNIS_Svalbard","weight":100},{"bandwidth":1000000,"bidirectional":true,"from_interface":"i2","from_router":"HiH_Harstad","latency":1649,"to_interface":"i1","to_router":"UNIS_Svalbard","weight":100},{"bandwidth":1000000,"bidirectional":true,"from_interface":"i3","from_router":"HiH_Harstad","latency":81,"to_interface":"i0","to_router":"NRS_Andoya","weight":100},{"bandwidth":2500000,"bidirectional":true,"from_interface":"i4","from_router":"HiH_Harstad","latency":322,"to_interface":"i1","to_router":"HBO_Bodo","weight":40},{"bandwidth":1000000,"bidirectional":true,"from_interface":"i1","from_router":"SA/SH_Kautokeino","latency":188,"to_interface":"i1","to_router":"UiTo_Karasjok","weight":100},{"bandwidth":500000,"bidirectional":true,"from_interface":"i0","from_router":"HiNT_Namsos","latency":88,"to_interface":"i0","to_router":"HiNT_Steinkjer","weight":200},{"bandwidth":500000,"bidirectional":true,"from_interface":"i1","from_router":"HiNT_Namsos","latency":403,"to_interface":"i0","to_router":"NB_Mo_i_Rana","weight":200},{"bandwidth":1000000,"bidirectional":true,"from_interface":"i2","from_router":"UNIS_Svalbard","latency":5,"to_interface":"i0","to_router":"NyAlesund","weight":100},{"bandwidth":1000000,"bidirectional":true,"from_interface":"i3","from_router":"UNIS_Svalbard","latency":5,"to_interface":"i0","to_router":"NPolar_Svalbard","weight":100},{"bandwidth":1000000,"bidirectional":true,"from_interface":"i4","from_router":"UNIS_Svalbard","latency":5,"to_interface":"i0","to_router":"Eiscat","weight":100},{"bandwidth":1000000,"bidirectional":true,"from_interface":"i1","from_router":"HiNT_Steinkjer","latency":145,"to_interface":"i3","to_router":"NTNU_Hovedbygget","weight":100},{"bandwidth":1000000,"bidirectional":true,"from_interface":"i2","from_router":"HiNT_Steinkjer","latency":93,"to_interface":"i0","to_router":"HiNT_Levanger","weight":100},{"bandwidth":1000000,"bidirectional":true,"from_interface":"i0","from_router":"HiNe_Sandnesjoen","latency":516,"to_interface":"i4","to_router":"NTNU_Hovedbygget","weight":100},{"bandwidth":1000000,"bidirectional":true,"from_interface":"i1","from_router":"HiNe_Sandnesjoen","latency":48,"to_interface":"i0","to_router":"HiNe_Nesna","weight":100},{"bandwidth":1000000,"bidirectional":true,"from_interface":"i1","from_router":"HiNe_Nesna","latency":91,"to_interface":"i1","to_router":"NB_Mo_i_Rana","weight":100},{"bandwidth":1000000,"bidirectional":true,"from_interface":"i2","from_router":"HiNe_Nesna","latency":229,"to_interface":"i2","to_router":"HBO_Bodo","weight":100},{"bandwidth":2500000,"bidirectional":true,"from_interface":"i2","from_router":"NB_Mo_i_Rana","latency":614,"to_interface":"i2","to_router":"NTNU_Realfagbygget","weight":40},{"bandwidth":1000000,"bidirectional":true,"from_interface":"i3","from_router":"NB_Mo_i_Rana","latency":5,"to_interface":"i0","to_router":"HBO_Mo_i_Rana","weight":100},{"bandwidth":2500000,"bidirectional":true,"from_interface":"i4","from_router":"NB_Mo_i_Rana","latency":185,"to_interface":"i3","to_router":"HBO_Bodo","weight":40},{"bandwidth":1000000,"bidirectional":true,"from_interface":"i5","from_router":"NB_Mo_i_Rana","latency":5,"to_interface":"i0","to_router":"HiNe_Mo_i_Rana","weight":100},{"bandwidth":1000000,"bidirectional":true,"from_interface":"i1","from_router":"HSF_Songdal","latency":122,"to_interface":"i0","to_router":"HSF_Forde","weight":100},{"bandwidth":500000,"bidirectional":true,"from_interface":"i2","from_router":"HSF_Songdal","latency":132,"to_interface":"i0","to_router":"HSF_Sandane","weight":200},{"bandwidth":2500000,"bidirectional":true,"from_interface":"i1","from_router":"HiA_Alesund","latency":403,"to_interface":"i5","to_router":"NTNU_Hovedbygget","weight":40},{"bandwidth":2500000,"bidirectional":true,"from_interface":"i2","from_router":"HiA_Alesund","latency":103,"to_interface":"i0","to_router":"HSM_Molde","weight":40},{"bandwidth":1000000,"bidirectional":true,"from_interface":"i3","from_router":"HiA_Alesund","latency":65,"to_interface":"i0","to_router":"HVO_Volda","weight":100},{"bandwidth":1000000,"bidirectional":true,"from_interface":"i1","from_router":"HSF_Forde","latency":135,"to_interface":"i1","to_router":"HVO_Volda","weight":100},{"bandwidth":10000000,"bidirectional":true,"from_interface":"i1","from_router":"HSM_Molde","latency":89,"to_interface":"i0","to_router":"HSM_Kristiansun","weight":10},{"bandwidth":10000000,"bidirectional":true,"from_interface":"i1","from_router":"HSM_Kristiansun","latency":234,"to_interface":"i0","to_router":"UNINETT_Teknobyen","weight":10},{"bandwidth":1000000,"bidirectional":true,"from_interface":"i1","from_router":"HiNT_Levanger","latency":38,"to_interface":"i0","to_router":"Hing_Stjordal","weight":100},{"bandwidth":1000000,"bidirectional":true,"from_interface":"i4","from_router":"HiT_Bo","latency":34,"to_interface":"i1","to_router":"HiT_Notodden","weight":100},{"bandwidth":1000000,"bidirectional":true,"from_interface":"i1","from_router":"Hing_Stjordal","latency":51,"to_interface":"i3","to_router":"NTNU_Realfagbygget","weight":100},{"bandwidth":1000000,"bidirectional":true,"from_interface":"i0","from_router":"HRP_Halden","latency":5,"to_interface":"i0","to_router":"HiO_Halden","weight":100},{"bandwidth":1000000,"bidirectional":true,"from_interface":"i2","from_router":"HiO_Sarpsborg","latency":44,"to_interface":"i1","to_router":"HiO_Halden","weight":100},{"bandwidth":1000000,"bidirectional":true,"from_interface":"i2","from_router":"HiO_Halden","latency":51,"to_interface":"i0","to_router":"HiO_Fredrikstad","weight":100},{"bandwidth":1000000,"bidirectional":true,"from_interface":"i1","from_router":"UMB_As","latency":886,"to_interface":"i1","to_router":"HiO_Fredrikstad","weight":100},{"bandwidth":1000000,"bidirectional":true,"from_interface":"i0","from_router":"HH_Hamar","latency":52,"to_interface":"i0","to_router":"HH_Elverum","weight":100},{"bandwidth":1000000,"bidirectional":true,"from_interface":"i1","from_router":"HH_Hamar","latency":85,"to_interface":"i1","to_router":"HiL_Lillehammer","weight":100},{"bandwidth":1000000,"bidirectional":true,"from_interface":"i6","from_router":"NTNU_Hovedbygget","latency":5,"to_interface":"i1","to_router":"UNINETT_Teknobyen","weight":100},{"bandwidth":10000000,"bidirectional":true,"from_interface":"i7","from_router":"NTNU_Hovedbygget","latency":5,"to_interface":"i4","to_router":"NTNU_Realfagbygget","weight":10},{"bandwidth":1000000,"bidirectional":true,"from_interface":"i5","from_router":"NTNU_Realfagbygget","latency":5,"to_interface":"i2","to_router":"UNINETT_Teknobyen","weight":100},{"bandwidth":1000000,"bidirectional":true,"from_interface":"i3","from_router":"UNINETT_Teknobyen","latency":221,"to_interface":"i0","to_router":"HH_Tynset","weight":100},{"bandwidth":1000000,"bidirectional":true,"from_interface":"i1","from_router":"HH_Tynset","latency":485,"to_interface":"i0","to_router":"HH_Evenstad","weight":100},{"bandwidth":1000000,"bidirectional":true,"from_interface":"i1","from_router":"HH_Evenstad","latency":696,"to_interface":"i0","to_router":"HH_Rena","weight":100},{"bandwidth":1000000,"bidirectional":true,"from_interface":"i1","from_router":"HH_Rena","latency":55,"to_interface":"i1","to_router":"HH_Elverum","weight":100},{"bandwidth":1000000,"bidirectional":true,"from_interface":"i2","from_router":"HH_Elverum","latency":139,"to_interface":"i1","to_router":"HH_Kongsvinger","weight":100}],"name":"Uninett2010","routers":[{"interfaces":[{"names":["i0","i1","i2","i3","i4","i5"],"routing_table":{}}],"location":{"latitude":59.91273,"longitude":10.74609},"name":"UiO"},{"interfaces":[{"names":["i0","i1","i2","i3","i4"],"routing_table":{}}],"location":{"latitude":59.91273,"longitude":10.74609},"name":"UiO2"},{"interfaces":[{"names":["i0","i1"],"routing_table":{}}],"location":{"latitude":60.79574,"longitude":10.69155},"name":"HiG_Gjovik"},{"interfaces":[{"names":["i0","i1","i2","i3","i4","i5","i6"],"routing_table":{}}],"location":{"latitude":59.91273,"longitude":10.74609},"name":"UiO_St_Olavsplass_5"},{"interfaces":[{"names":["i0"],"routing_table":{}}],"location":{"latitude":60.16804,"longitude":10.25647},"name":"Statenskartverkgeodesi"},{"interfaces":[{"names":["i0","i1","i2"],"routing_table":{}}],"location":{"latitude":59.66858,"longitude":9.65017},"name":"HiBU_Kongsberg"},{"interfaces":[{"names":["i0","i1","i2"],"routing_table":{}}],"location":{"latitude":59.98333,"longitude":11.03333},"name":"UNIK_Kjeller"},{"interfaces":[{"names":["i0","i1","i2"],"routing_table":{}}],"location":{"latitude":60.16804,"longitude":10.25647},"name":"HiBu_Honefoss"},{"interfaces":[{"names":["i0","i1","i2","i3"],"routing_table":{}}],"location":{"latitude":69.6489,"longitude":18.95508},"name":"UiTo"},{"interfaces":[{"names":["i0","i1","i2"],"routing_table":{}}],"location":{"latitude":68.43838,"longitude":17.4272},"name":"HiN_Narvik"},{"interfaces":[{"names":["i0","i1","i2"],"routing_table":{}}],"location":{"latitude":59.74389,"longitude":10.20449},"name":"HiBU_Drammen"},{"interfaces":[{"names":["i0","i1","i2","i3"],"routing_table":{}}],"location":{"latitude":59.41111,"longitude":10.43},"name":"HVE_Borre"},{"interfaces":[{"names":["i0","i1"],"routing_table":{}}],"location":{"latitude":70.07436,"longitude":29.74872},"name":"HiF_Vadso"},{"interfaces":[{"names":["i0","i1"],"routing_table":{}}],"location":{"latitude":69.72706,"longitude":30.04578},"name":"HiF_Kirkenes"},{"interfaces":[{"names":["i0","i1","i2"],"routing_table":{}}],"location":{"latitude":70.66336,"longitude":23.68209},"name":"HiF_Hammerfest"},{"interfaces":[{"names":["i0","i1","i2"],"routing_table":{}}],"location":{"latitude":69.96887,"longitude":23.27165},"name":"HiF_Alta"},{"interfaces":[{"names":["i0","i1"],"routing_table":{}}],"location":{"latitude":59.75,"longitude":5.48333},"name":"HSH_Stord"},{"interfaces":[{"names":["i0","i1","i2","i3","i4"],"routing_table":{}}],"location":{"latitude":60.39299,"longitude":5.32415},"name":"UiB_Hoyteklogibygget"},{"interfaces":[{"names":["i0","i1"],"routing_table":{}}],"location":{"latitude":59.14054,"longitude":9.6561},"name":"HiT_Porsgrunn"},{"interfaces":[{"names":["i0","i1"],"routing_table":{}}],"location":{"latitude":58.46151,"longitude":8.77253},"name":"UiA_Arendal"},{"interfaces":[{"names":["i0"],"routing_table":{}}],"location":{"latitude":59.73333,"longitude":8.0},"name":"Hit_Rauland"},{"interfaces":[{"names":["i0","i1"],"routing_table":{}}],"location":{"latitude":58.3405,"longitude":8.59343},"name":"UiA_Grimstad"},{"interfaces":[{"names":["i0","i1","i2","i3"],"routing_table":{}}],"location":{"latitude":58.14671,"longitude":7.9956},"name":"UiA_Kristiansand"},{"interfaces":[{"names":["i0","i1","i2","i3"],"routing_table":{}}],"location":{"latitude":58.97005,"longitude":5.73332},"name":"UiS_Stavanger"},{"interfaces":[{"names":["i0"],"routing_table":{}}],"location":{"latitude":58.85244,"longitude":5.73521},"name":"VetHS_Sandnes"},{"interfaces":[{"names":["i0","i1"],"routing_table":{}}],"location":{"latitude":59.41378,"longitude":5.268},"name":"HSH_Haugesund"},{"interfaces":[{"names":["i0","i1","i2","i3"],"routing_table":{}}],"location":{"latitude":69.6489,"longitude":18.95508},"name":"UiTo2"},{"interfaces":[{"names":["i0"],"routing_table":{}}],"location":{"latitude":59.61667,"longitude":10.35},"name":"HVE_Eik"},{"interfaces":[{"names":["i0"],"routing_table":{}}],"location":{"latitude":70.9221,"longitude":-8.7187},"name":"Longyearbyen_Skole"},{"interfaces":[{"names":["i0","i1","i2","i3","i4"],"routing_table":{}}],"location":{"latitude":68.79833,"longitude":16.54165},"name":"HiH_Harstad"},{"interfaces":[{"names":["i0"],"routing_table":{}}],"location":{"latitude":69.12806,"longitude":15.8575},"name":"NRS_Andoya"},{"interfaces":[{"names":["i0","i1"],"routing_table":{}}],"location":{"latitude":69.01247,"longitude":23.04116},"name":"SA/SH_Kautokeino"},{"interfaces":[{"names":["i0","i1"],"routing_table":{}}],"location":{"latitude":64.46624,"longitude":11.49572},"name":"HiNT_Namsos"},{"interfaces":[{"names":["i0","i1","i2","i3","i4"],"routing_table":{}}],"location":{"latitude":70.9221,"longitude":-8.7187},"name":"UNIS_Svalbard"},{"interfaces":[{"names":["i0","i1","i2"],"routing_table":{}}],"location":{"latitude":64.01487,"longitude":11.49537},"name":"HiNT_Steinkjer"},{"interfaces":[{"names":["i0","i1"],"routing_table":{}}],"location":{"latitude":66.02166,"longitude":12.63158},"name":"HiNe_Sandnesjoen"},{"interfaces":[{"names":["i0","i1","i2"],"routing_table":{}}],"location":{"latitude":66.19672,"longitude":13.02133},"name":"HiNe_Nesna"},{"interfaces":[{"names":["i0","i1","i2","i3","i4","i5"],"routing_table":{}}],"location":{"latitude":66.31278,"longitude":14.14278},"name":"NB_Mo_i_Rana"},{"interfaces":[{"names":["i0"],"routing_table":{}}],"location":{"latitude":66.31278,"longitude":14.14278},"name":"HBO_Mo_i_Rana"},{"interfaces":[{"names":["i0","i1","i2","i3"],"routing_table":{}}],"location":{"latitude":67.28,"longitude":14.40501},"name":"HBO_Bodo"},{"interfaces":[{"names":["i0","i1","i2"],"routing_table":{}}],"location":{"latitude":61.22829,"longitude":7.10026},"name":"HSF_Songdal"},{"interfaces":[{"names":["i0","i1","i2","i3"],"routing_table":{}}],"location":{"latitude":60.39299,"longitude":5.32415},"name":"UiB_BT"},{"interfaces":[{"names":["i0","i1","i2","i3"],"routing_table":{}}],"location":{"latitude":62.47225,"longitude":6.15492},"name":"HiA_Alesund"},{"interfaces":[{"names":["i0","i1"],"routing_table":{}}],"location":{"latitude":61.45217,"longitude":5.85717},"name":"HSF_Forde"},{"interfaces":[{"names":["i0","i1"],"routing_table":{}}],"location":{"latitude":62.73752,"longitude":7.15912},"name":"HSM_Molde"},{"interfaces":[{"names":["i0","i1"],"routing_table":{}}],"location":{"latitude":62.14762,"longitude":6.07408},"name":"HVO_Volda"},{"interfaces":[{"names":["i0","i1"],"routing_table":{}}],"location":{"latitude":63.11045,"longitude":7.72795},"name":"HSM_Kristiansun"},{"interfaces":[{"names":["i0","i1"],"routing_table":{}}],"location":{"latitude":63.6,"longitude":10.96667},"name":"HiNT_Levanger"},{"interfaces":[{"names":["i0","i1"],"routing_table":{}}],"location":{"latitude":69.47187,"longitude":25.51122},"name":"UiTo_Karasjok"},{"interfaces":[{"names":["i0","i1","i2","i3","i4"],"routing_table":{}}],"location":{"latitude":59.43333,"longitude":9.06667},"name":"HiT_Bo"},{"interfaces":[{"names":["i0","i1"],"routing_table":{}}],"location":{"latitude":59.55936,"longitude":9.25853},"name":"HiT_Notodden"},{"interfaces":[{"names":["i0","i1"],"routing_table":{}}],"location":{"latitude":63.41667,"longitude":10.95},"name":"Hing_Stjordal"},{"interfaces":[{"names":["i0"],"routing_table":{}}],"location":{"latitude":59.98333,"longitude":11.03333},"name":"HiAK_Kjeller"},{"interfaces":[{"names":["i0"],"routing_table":{}}],"location":{"latitude":59.12478,"longitude":11.38754},"name":"HRP_Halden"},{"interfaces":[{"names":["i0"],"routing_table":{}}],"location":{"latitude":59.05328,"longitude":10.03517},"name":"HVE_Larvik"},{"interfaces":[{"names":["i0"],"routing_table":{}}],"location":{"latitude":70.9221,"longitude":-8.7187},"name":"Eiscat"},{"interfaces":[{"names":["i0","i1","i2"],"routing_table":{}}],"location":{"latitude":59.28391,"longitude":11.10962},"name":"HiO_Sarpsborg"},{"interfaces":[{"names":["i0","i1","i2"],"routing_table":{}}],"location":{"latitude":59.12478,"longitude":11.38754},"name":"HiO_Halden"},{"interfaces":[{"names":["i0","i1"],"routing_table":{}}],"location":{"latitude":63.96667,"longitude":10.2},"name":"UMB_As"},{"interfaces":[{"names":["i0","i1"],"routing_table":{}}],"location":{"latitude":59.2181,"longitude":10.9298},"name":"HiO_Fredrikstad"},{"interfaces":[{"names":["i0"],"routing_table":{}}],"location":{"latitude":70.9221,"longitude":-8.7187},"name":"NyAlesund"},{"interfaces":[{"names":["i0"],"routing_table":{}}],"location":{"latitude":61.77277,"longitude":6.21496},"name":"HSF_Sandane"},{"interfaces":[{"names":["i0"],"routing_table":{}}],"location":{"latitude":70.9221,"longitude":-8.7187},"name":"NPolar_Svalbard"},{"interfaces":[{"names":["i0"],"routing_table":{}}],"location":{"latitude":66.31278,"longitude":14.14278},"name":"HiNe_Mo_i_Rana"},{"interfaces":[{"names":["i0","i1"],"routing_table":{}}],"location":{"latitude":60.7945,"longitude":11.06798},"name":"HH_Hamar"},{"interfaces":[{"names":["i0","i1"],"routing_table":{}}],"location":{"latitude":61.11514,"longitude":10.46628},"name":"HiL_Lillehammer"},{"interfaces":[{"names":["i0","i1","i2","i3","i4","i5","i6","i7"],"routing_table":{}}],"location":{"latitude":63.43049,"longitude":10.39506},"name":"NTNU_Hovedbygget"},{"interfaces":[{"names":["i0","i1","i2","i3","i4","i5"],"routing_table":{}}],"location":{"latitude":63.43049,"longitude":10.39506},"name":"NTNU_Realfagbygget"},{"interfaces":[{"names":["i0","i1","i2","i3"],"routing_table":{}}],"location":{"latitude":63.43049,"longitude":10.39506},"name":"UNINETT_Teknobyen"},{"interfaces":[{"names":["i0","i1"],"routing_table":{}}],"location":{"latitude":62.27594,"longitude":10.78241},"name":"HH_Tynset"},{"interfaces":[{"names":["i0","i1"],"routing_table":{}}],"location":{"latitude":64.86667,"longitude":11.11667},"name":"HH_Evenstad"},{"interfaces":[{"names":["i0","i1"],"routing_table":{}}],"location":{"latitude":61.13484,"longitude":11.36409},"name":"HH_Rena"},{"interfaces":[{"names":["i0","i1","i2"],"routing_table":{}}],"location":{"latitude":60.88191,"longitude":11.56231},"name":"HH_Elverum"},{"interfaces":[{"names":["i0","i1"],"routing_table":{}}],"location":{"latitude":60.19049,"longitude":11.99772},"name":"HH_Kongsvinger"}]}}
