{"network":{"links":[{"bandwidth":1000000,"bidirectional":true,"from_interface":"i0","from_router":"Hamburg","latency":429,"to_interface":"i0","to_router":"Berlin","weight":10},{"bandwidth":1000000,"bidirectional":true,"from_interface":"i1","from_router":"Hamburg","latency":569,"to_interface":"i0","to_router":"Dusseldorf","weight":10},{"bandwidth":1000000,"bidirectional":true,"from_interface":"i0","from_router":"Stuttgart","latency":322,"to_interface":"i0","to_router":"Munich","weight":10},{"bandwidth":1000000,"bidirectional":true,"from_interface":"i1","from_router":"Stuttgart","latency":259,"to_interface":"i0","to_router":"Frankfurt","weight":10},{"bandwidth":1000000,"bidirectional":true,"from_interface":"i1","from_router":"Munich","latency":845,"to_interface":"i1","to_router":"Berlin","weight":10},{"bandwidth":1000000,"bidirectional":true,"from_interface":"i0","from_router":"Cologne","latency":258,"to_interface":"i1","to_router":"Frankfurt","weight":10},{"bandwidth":1000000,"bidirectional":true,"from_interface":"i1","from_router":"Cologne","latency":258,"to_interface":"i2","to_router":"Frankfurt","weight":10},{"bandwidth":1000000,"bidirectional":true,"from_interface":"i2","from_router":"Cologne","latency":62,"to_interface":"i1","to_router":"Dusseldorf","weight":10},{"bandwidth":1000000,"bidirectional":true,"from_interface":"i3","from_router":"Cologne","latency":62,"to_interface":"i2","to_router":"Dusseldorf","weight":10},{"bandwidth":1000000,"bidirectional":true,"from_interface":"i3","from_router":"Frankfurt","latency":801,"to_interface":"i0","to_router":"Paris","weight":10},{"bandwidth":1000000,"bidirectional":true,"from_interface":"i0","from_router":"Dublin","latency":776,"to_interface":"i0","to_router":"London","weight":10},{"bandwidth":1000000,"bidirectional":true,"from_interface":"i1","from_router":"Dublin","latency":776,"to_interface":"i1","to_router":"London","weight":10},{"bandwidth":1000000,"bidirectional":true,"from_interface":"i2","from_router":"London","latency":577,"to_interface":"i1","to_router":"Paris","weight":10},{"bandwidth":1000000,"bidirectional":true,"from_interface":"i3","from_router":"London","latency":599,"to_interface":"i0","to_router":"Amsterdam","weight":10},{"bandwidth":1000000,"bidirectional":true,"from_interface":"i2","from_router":"Paris","latency":626,"to_interface":"i0","to_router":"Rotterdam","weight":10},{"bandwidth":1000000,"bidirectional":true,"from_interface":"i1","from_router":"Rotterdam","latency":40,"to_interface":"i0","to_router":"The_Hague","weight":10},{"bandwidth":1000000,"bidirectional":true,"from_interface":"i1","from_router":"The_Hague","latency":91,"to_interface":"i1","to_router":"Amsterdam","weight":10},{"bandwidth":1000000,"bidirectional":true,"from_interface":"i2","from_router":"Amsterdam","latency":63,"to_interface":"i0","to_router":"Utrecht","weight":10},{"bandwidth":1000000,"bidirectional":true,"from_interface":"i1","from_router":"Utrecht","latency":254,"to_interface":"i3","to_router":"Dusseldorf","weight":10}],"name":"Eunetworks","routers":[{"interfaces":[{"names":["i0","i1"],"routing_table":{}}],"location":{"latitude":53.55,"longitude":10.0},"name":"Hamburg"},{"interfaces":[{"names":["i0","i1"],"routing_table":{}}],"location":{"latitude":48.78232,"longitude":9.17702},"name":"Stuttgart"},{"interfaces":[{"names":["i0","i1"],"routing_table":{}}],"location":{"latitude":48.13743,"longitude":11.57549},"name":"Munich"},{"interfaces":[{"names":["i0","i1"],"routing_table":{}}],"location":{"latitude":52.52437,"longitude":13.41053},"name":"Berlin"},{"interfaces":[{"names":["i0","i1","i2","i3"],"routing_table":{}}],"location":{"latitude":50.93333,"longitude":6.95},"name":"Cologne"},{"interfaces":[{"names":["i0","i1","i2","i3"],"routing_table":{}}],"location":{"latitude":50.11667,"longitude":8.68333},"name":"Frankfurt"},{"interfaces":[{"names":["i0","i1"],"routing_table":{}}],"location":{"latitude":53.34399,"longitude":-6.26719},"name":"Dublin"},{"interfaces":[{"names":["i0","i1","i2","i3"],"routing_table":{}}],"location":{"latitude":51.50853,"longitude":-0.12574},"name":"London"},{"interfaces":[{"names":["i0","i1","i2"],"routing_table":{}}],"location":{"latitude":48.85341,"longitude":2.3488},"name":"Paris"},{"interfaces":[{"names":["i0","i1"],"routing_table":{}}],"location":{"latitude":51.9225,"longitude":4.47917},"name":"Rotterdam"},{"interfaces":[{"names":["i0","i1"],"routing_table":{}}],"location":{"latitude":52.07667,"longitude":4.29861},"name":"The_Hague"},{"interfaces":[{"names":["i0","i1","i2"],"routing_table":{}}],"location":{"latitude":52.37403,"longitude":4.88969},"name":"Amsterdam"},{"interfaces":[{"names":["i0","i1"],"routing_table":{}}],"location":{"latitude":52.09083,"longitude":5.12222},"name":"Utrecht"},{"interfaces":[{"names":["i0","i1","i2","i3"],"routing_table":{}}],"location":{"latitude":51.22172,"longitude":6.77616},"name":"Dusseldorf"}]}}
