{"network":{"links":[{"bandwidth":1000000,"bidirectional":true,"from_interface":"i0","from_router":"San_Diego","latency":230,"to_interface":"i0","to_router":"Orange_County","weight":10},{"bandwidth":1000000,"bidirectional":true,"from_interface":"i1","from_router":"San_Diego","latency":230,"to_interface":"i1","to_router":"Orange_County","weight":10},{"bandwidth":1000000,"bidirectional":true,"from_interface":"i2","from_router":"San_Diego","latency":982,"to_interface":"i0","to_router":"Tucson","weight":10},{"bandwidth":1000000,"bidirectional":true,"from_interface":"i2","from_router":"Orange_County","latency":6917,"to_interface":"i0","to_router":"Honolulu","weight":10},{"bandwidth":1000000,"bidirectional":true,"from_interface":"i3","from_router":"Orange_County","latency":82,"to_interface":"i0","to_router":"Los_Angeles","weight":10},{"bandwidth":1000000,"bidirectional":true,"from_interface":"i0","from_router":"El_Paso","latency":930,"to_interface":"i0","to_router":"Phoenix","weight":10},{"bandwidth":1000000,"bidirectional":true,"from_interface":"i1","from_router":"El_Paso","latency":1451,"to_interface":"i0","to_router":"Fort_Worth","weight":10},{"bandwidth":1000000,"bidirectional":true,"from_interface":"i1","from_router":"Honolulu","latency":6445,"to_interface":"i0","to_router":"Oakland","weight":10},{"bandwidth":1000000,"bidirectional":true,"from_interface":"i0","from_router":"San_Louis_Obispo","latency":535,"to_interface":"i0","to_router":"San_Francisco","weight":10},{"bandwidth":1000000,"bidirectional":true,"from_interface":"i1","from_router":"San_Francisco","latency":27,"to_interface":"i1","to_router":"Oakland","weight":10},{"bandwidth":1000000,"bidirectional":true,"from_interface":"i2","from_router":"San_Francisco","latency":747,"to_interface":"i0","to_router":"Santa_Barbara","weight":10},{"bandwidth":1000000,"bidirectional":true,"from_interface":"i1","from_router":"Los_Angeles","latency":237,"to_interface":"i1","to_router":"Santa_Barbara","weight":10},{"bandwidth":1000000,"bidirectional":true,"from_interface":"i2","from_router":"Los_Angeles","latency":925,"to_interface":"i2","to_router":"Oakland","weight":10},{"bandwidth":1000000,"bidirectional":true,"from_interface":"i3","from_router":"Los_Angeles","latency":3243,"to_interface":"i1","to_router":"Fort_Worth","weight":10},{"bandwidth":1000000,"bidirectional":true,"from_interface":"i4","from_router":"Los_Angeles","latency":618,"to_interface":"i0","to_router":"Las_Vegas","weight":10},{"bandwidth":1000000,"bidirectional":true,"from_interface":"i5","from_router":"Los_Angeles","latency":276,"to_interface":"i0","to_router":"Bakersfield","weight":10},{"bandwidth":1000000,"bidirectional":true,"from_interface":"i0","from_router":"New_Jersey","latency":452,"to_interface":"i0","to_router":"Baltimore","weight":10},{"bandwidth":1000000,"bidirectional":true,"from_interface":"i1","from_router":"Baltimore","latency":100,"to_interface":"i0","to_router":"Washington_DC","weight":10},{"bandwidth":1000000,"bidirectional":true,"from_interface":"i2","from_router":"Baltimore","latency":100,"to_interface":"i1","to_router":"Washington_DC","weight":10},{"bandwidth":1000000,"bidirectional":true,"from_interface":"i3","from_router":"Oakland","latency":2522,"to_interface":"i0","to_router":"Denver","weight":10},{"bandwidth":1000000,"bidirectional":true,"from_interface":"i4","from_router":"Oakland","latency":1820,"to_interface":"i0","to_router":"Seattle","weight":10},{"bandwidth":1000000,"bidirectional":true,"from_interface":"i5","from_router":"Oakland","latency":187,"to_interface":"i0","to_router":"Sacramento","weight":10},{"bandwidth":1000000,"bidirectional":true,"from_interface":"i6","from_router":"Oakland","latency":421,"to_interface":"i0","to_router":"Fresno","weight":10},{"bandwidth":1000000,"bidirectional":true,"from_interface":"i1","from_router":"Sacramento","latency":1300,"to_interface":"i0","to_router":"Portland","weight":10},{"bandwidth":1000000,"bidirectional":true,"from_interface":"i0","from_router":"Rochester","latency":676,"to_interface":"i0","to_router":"New_York","weight":10},{"bandwidth":1000000,"bidirectional":true,"from_interface":"i1","from_router":"Rochester","latency":536,"to_interface":"i0","to_router":"Albany","weight":10},{"bandwidth":1000000,"bidirectional":true,"from_interface":"i2","from_router":"Rochester","latency":307,"to_interface":"i0","to_router":"Binghamton","weight":10},{"bandwidth":1000000,"bidirectional":true,"from_interface":"i3","from_router":"Rochester","latency":1395,"to_interface":"i0","to_router":"Chicago","weight":10},{"bandwidth":1000000,"bidirectional":true,"from_interface":"i0","from_router":"Dayton","latency":121,"to_interface":"i0","to_router":"Cincinnati","weight":10},{"bandwidth":1000000,"bidirectional":true,"from_interface":"i1","from_router":"Dayton","latency":178,"to_interface":"i0","to_router":"Columbus","weight":10},{"bandwidth":1000000,"bidirectional":true,"from_interface":"i1","from_router":"Columbus","latency":1281,"to_interface":"i1","to_router":"New_York","weight":10},{"bandwidth":1000000,"bidirectional":true,"from_interface":"i2","from_router":"Columbus","latency":880,"to_interface":"i2","to_router":"Washington_DC","weight":10},{"bandwidth":1000000,"bidirectional":true,"from_interface":"i3","from_router":"Columbus","latency":455,"to_interface":"i0","to_router":"Indianapolis","weight":10},{"bandwidth":1000000,"bidirectional":true,"from_interface":"i0","from_router":"Birmingham","latency":585,"to_interface":"i0","to_router":"Memphis","weight":10},{"bandwidth":1000000,"bidirectional":true,"from_interface":"i1","from_router":"Birmingham","latency":379,"to_interface":"i0","to_router":"Atlanta","weight":10},{"bandwidth":1000000,"bidirectional":true,"from_interface":"i1","from_router":"Memphis","latency":530,"to_interface":"i0","to_router":"Nashville","weight":10},{"bandwidth":1000000,"bidirectional":true,"from_interface":"i2","from_router":"Memphis","latency":353,"to_interface":"i0","to_router":"Little_Rock","weight":10},{"bandwidth":1000000,"bidirectional":true,"from_interface":"i3","from_router":"Memphis","latency":649,"to_interface":"i0","to_router":"St_Louis","weight":10},{"bandwidth":1000000,"bidirectional":true,"from_interface":"i4","from_router":"Memphis","latency":907,"to_interface":"i1","to_router":"Atlanta","weight":10},{"bandwidth":1000000,"bidirectional":true,"from_interface":"i5","from_router":"Memphis","latency":1131,"to_interface":"i0","to_router":"Dallas","weight":10},{"bandwidth":1000000,"bidirectional":true,"from_interface":"i0","from_router":"Lafayette","latency":194,"to_interface":"i0","to_router":"Lake_Charles","weight":10},{"bandwidth":1000000,"bidirectional":true,"from_interface":"i1","from_router":"Lafayette","latency":194,"to_interface":"i1","to_router":"Lake_Charles","weight":10},{"bandwidth":1000000,"bidirectional":true,"from_interface":"i2","from_router":"Lafayette","latency":320,"to_interface":"i0","to_router":"New_Orleans","weight":10},{"bandwidth":1000000,"bidirectional":true,"from_interface":"i0","from_router":"Baton_Rouge","latency":335,"to_interface":"i2","to_router":"Lake_Charles","weight":10},{"bandwidth":1000000,"bidirectional":true,"from_interface":"i1","from_router":"New_Orleans","latency":1142,"to_interface":"i2","to_router":"Atlanta","weight":10},{"bandwidth":1000000,"bidirectional":true,"from_interface":"i2","from_router":"New_Orleans","latency":439,"to_interface":"i0","to_router":"Jackson","weight":10},{"bandwidth":1000000,"bidirectional":true,"from_interface":"i3","from_router":"New_Orleans","latency":357,"to_interface":"i0","to_router":"Mobile","weight":10},{"bandwidth":1000000,"bidirectional":true,"from_interface":"i1","from_router":"Mobile","latency":419,"to_interface":"i0","to_router":"Montgomery","weight":10},{"bandwidth":1000000,"bidirectional":true,"from_interface":"i1","from_router":"Montgomery","latency":1495,"to_interface":"i0","to_router":"Columbus2","weight":10},{"bandwidth":1000000,"bidirectional":true,"from_interface":"i1","from_router":"Columbus2","latency":1173,"to_interface":"i3","to_router":"Atlanta","weight":10},{"bandwidth":1000000,"bidirectional":true,"from_interface":"i4","from_router":"Atlanta","latency":522,"to_interface":"i0","to_router":"Columnia","weight":10},{"bandwidth":1000000,"bidirectional":true,"from_interface":"i5","from_router":"Atlanta","latency":372,"to_interface":"i0","to_router":"Greenville","weight":10},{"bandwidth":1000000,"bidirectional":true,"from_interface":"i6","from_router":"Atlanta","latency":611,"to_interface":"i0","to_router":"Charlotte","weight":10},{"bandwidth":1000000,"bidirectional":true,"from_interface":"i7","from_router":"Atlanta","latency":769,"to_interface":"i0","to_router":"Jacksonville","weight":10},{"bandwidth":1000000,"bidirectional":true,"from_interface":"i8","from_router":"Atlanta","latency":1081,"to_interface":"i0","to_router":"Orlando","weight":10},{"bandwidth":1000000,"bidirectional":true,"from_interface":"i9","from_router":"Atlanta","latency":1935,"to_interface":"i1","to_router":"Dallas","weight":10},{"bandwidth":1000000,"bidirectional":true,"from_interface":"i10","from_router":"Atlanta","latency":1150,"to_interface":"i1","to_router":"Indianapolis","weight":10},{"bandwidth":1000000,"bidirectional":true,"from_interface":"i0","from_router":"Tampa","latency":514,"to_interface":"i0","to_router":"Fort_Lauderdale","weight":10},{"bandwidth":1000000,"bidirectional":true,"from_interface":"i1","from_router":"Tampa","latency":2123,"to_interface":"i0","to_router":"Houston","weight":10},{"bandwidth":1000000,"bidirectional":true,"from_interface":"i2","from_router":"Tampa","latency":465,"to_interface":"i1","to_router":"Jacksonville","weight":10},{"bandwidth":1000000,"bidirectional":true,"from_interface":"i3","from_router":"Tampa","latency":212,"to_interface":"i1","to_router":"Orlando","weight":10},{"bandwidth":1000000,"bidirectional":true,"from_interface":"i3","from_router":"Washington_DC","latency":552,"to_interface":"i2","to_router":"New_York","weight":10},{"bandwidth":1000000,"bidirectional":true,"from_interface":"i4","from_router":"Washington_DC","latency":1597,"to_interface":"i1","to_router":"Chicago","weight":10},{"bandwidth":1000000,"bidirectional":true,"from_interface":"i5","from_router":"Washington_DC","latency":886,"to_interface":"i1","to_router":"Charlotte","weight":10},{"bandwidth":1000000,"bidirectional":true,"from_interface":"i6","from_router":"Washington_DC","latency":629,"to_interface":"i0","to_router":"Raleigh","weight":10},{"bandwidth":1000000,"bidirectional":true,"from_interface":"i1","from_router":"Raleigh","latency":143,"to_interface":"i0","to_router":"Fayatteville","weight":10},{"bandwidth":1000000,"bidirectional":true,"from_interface":"i2","from_router":"Raleigh","latency":186,"to_interface":"i0","to_router":"Greensboro","weight":10},{"bandwidth":1000000,"bidirectional":true,"from_interface":"i1","from_router":"St_Louis","latency":622,"to_interface":"i2","to_router":"Indianapolis","weight":10},{"bandwidth":1000000,"bidirectional":true,"from_interface":"i0","from_router":"Shreveport","latency":441,"to_interface":"i3","to_router":"Lake_Charles","weight":10},{"bandwidth":1000000,"bidirectional":true,"from_interface":"i2","from_router":"Orlando","latency":496,"to_interface":"i1","to_router":"Fort_Lauderdale","weight":10},{"bandwidth":1000000,"bidirectional":true,"from_interface":"i1","from_router":"Denver","latency":2462,"to_interface":"i2","to_router":"Chicago","weight":10},{"bandwidth":1000000,"bidirectional":true,"from_interface":"i2","from_router":"Denver","latency":1712,"to_interface":"i0","to_router":"Boise","weight":10},{"bandwidth":1000000,"bidirectional":true,"from_interface":"i3","from_router":"Denver","latency":1876,"to_interface":"i0","to_router":"Minneapolis","weight":10},{"bandwidth":1000000,"bidirectional":true,"from_interface":"i4","from_router":"Denver","latency":1778,"to_interface":"i2","to_router":"Dallas","weight":10},{"bandwidth":1000000,"bidirectional":true,"from_interface":"i1","from_router":"Fayatteville","latency":304,"to_interface":"i2","to_router":"Charlotte","weight":10},{"bandwidth":1000000,"bidirectional":true,"from_interface":"i1","from_router":"Albany","latency":365,"to_interface":"i3","to_router":"New_York","weight":10},{"bandwidth":1000000,"bidirectional":true,"from_interface":"i0","from_router":"Lexington","latency":198,"to_interface":"i0","to_router":"Louisville","weight":10},{"bandwidth":1000000,"bidirectional":true,"from_interface":"i1","from_router":"Lexington","latency":222,"to_interface":"i1","to_router":"Cincinnati","weight":10},{"bandwidth":1000000,"bidirectional":true,"from_interface":"i2","from_router":"Cincinnati","latency":272,"to_interface":"i3","to_router":"Indianapolis","weight":10},{"bandwidth":1000000,"bidirectional":true,"from_interface":"i1","from_router":"Columnia","latency":233,"to_interface":"i3","to_router":"Charlotte","weight":10},{"bandwidth":1000000,"bidirectional":true,"from_interface":"i1","from_router":"Nashville","latency":420,"to_interface":"i1","to_router":"Louisville","weight":10},{"bandwidth":1000000,"bidirectional":true,"from_interface":"i1","from_router":"Greenville","latency":250,"to_interface":"i4","to_router":"Charlotte","weight":10},{"bandwidth":1000000,"bidirectional":true,"from_interface":"i5","from_router":"Charlotte","latency":227,"to_interface":"i1","to_router":"Greensboro","weight":10},{"bandwidth":1000000,"bidirectional":true,"from_interface":"i6","from_router":"Charlotte","latency":2485,"to_interface":"i1","to_router":"Houston","weight":10},{"bandwidth":1000000,"bidirectional":true,"from_interface":"i7","from_router":"Charlotte","latency":2494,"to_interface":"i3","to_router":"Dallas","weight":10},{"bandwidth":1000000,"bidirectional":true,"from_interface":"i0","from_router":"Kansas_City","latency":588,"to_interface":"i0","to_router":"Tulsa","weight":10},{"bandwidth":1000000,"bidirectional":true,"from_interface":"i1","from_router":"Kansas_City","latency":1110,"to_interface":"i3","to_router":"Chicago","weight":10},{"bandwidth":1000000,"bidirectional":true,"from_interface":"i1","from_router":"Little_Rock","latency":789,"to_interface":"i4","to_router":"Dallas","weight":10},{"bandwidth":1000000,"bidirectional":true,"from_interface":"i1","from_router":"Minneapolis","latency":803,"to_interface":"i0","to_router":"Milwauke","weight":10},{"bandwidth":1000000,"bidirectional":true,"from_interface":"i2","from_router":"Minneapolis","latency":956,"to_interface":"i4","to_router":"Chicago","weight":10},{"bandwidth":1000000,"bidirectional":true,"from_interface":"i1","from_router":"Tulsa","latency":641,"to_interface":"i5","to_router":"Dallas","weight":10},{"bandwidth":1000000,"bidirectional":true,"from_interface":"i5","from_router":"Chicago","latency":1913,"to_interface":"i4","to_router":"New_York","weight":10},{"bandwidth":1000000,"bidirectional":true,"from_interface":"i6","from_router":"Chicago","latency":227,"to_interface":"i1","to_router":"Milwauke","weight":10},{"bandwidth":1000000,"bidirectional":true,"from_interface":"i7","from_router":"Chicago","latency":2155,"to_interface":"i6","to_router":"Dallas","weight":10},{"bandwidth":1000000,"bidirectional":true,"from_interface":"i8","from_router":"Chicago","latency":443,"to_interface":"i4","to_router":"Indianapolis","weight":10},{"bandwidth":1000000,"bidirectional":true,"from_interface":"i2","from_router":"Louisville","latency":291,"to_interface":"i5","to_router":"Indianapolis","weight":10},{"bandwidth":1000000,"bidirectional":true,"from_interface":"i4","from_router":"Lake_Charles","latency":361,"to_interface":"i2","to_router":"Houston","weight":10},{"bandwidth":1000000,"bidirectional":true,"from_interface":"i2","from_router":"Fort_Worth","latency":465,"to_interface":"i0","to_router":"Austin","weight":10},{"bandwidth":1000000,"bidirectional":true,"from_interface":"i3","from_router":"Fort_Worth","latency":85,"to_interface":"i7","to_router":"Dallas","weight":10},{"bandwidth":1000000,"bidirectional":true,"from_interface":"i1","from_router":"Las_Vegas","latency":691,"to_interface":"i1","to_router":"Phoenix","weight":10},{"bandwidth":1000000,"bidirectional":true,"from_interface":"i2","from_router":"Las_Vegas","latency":1390,"to_interface":"i1","to_router":"Boise","weight":10},{"bandwidth":1000000,"bidirectional":true,"from_interface":"i1","from_router":"Bakersfield","latency":283,"to_interface":"i1","to_router":"Fresno","weight":10},{"bandwidth":1000000,"bidirectional":true,"from_interface":"i3","from_router":"Houston","latency":512,"to_interface":"i0","to_router":"San_Antonio","weight":10},{"bandwidth":1000000,"bidirectional":true,"from_interface":"i4","from_router":"Houston","latency":397,"to_interface":"i1","to_router":"Austin","weight":10},{"bandwidth":1000000,"bidirectional":true,"from_interface":"i5","from_router":"Houston","latency":609,"to_interface":"i8","to_router":"Dallas","weight":10},{"bandwidth":1000000,"bidirectional":true,"from_interface":"i1","from_router":"San_Antonio","latency":202,"to_interface":"i2","to_router":"Austin","weight":10},{"bandwidth":1000000,"bidirectional":true,"from_interface":"i3","from_router":"Austin","latency":493,"to_interface":"i9","to_router":"Dallas","weight":10},{"bandwidth":1000000,"bidirectional":true,"from_interface":"i10","from_router":"Dallas","latency":2374,"to_interface":"i2","to_router":"Phoenix","weight":10},{"bandwidth":1000000,"bidirectional":true,"from_interface":"i11","from_router":"Dallas","latency":1648,"to_interface":"i0","to_router":"Colorado_Springs","weight":10},{"bandwidth":1000000,"bidirectional":true,"from_interface":"i0","from_router":"Miami","latency":69,"to_interface":"i2","to_router":"Fort_Lauderdale","weight":10},{"bandwidth":1000000,"bidirectional":true,"from_interface":"i3","from_router":"Phoenix","latency":293,"to_interface":"i1","to_router":"Tucson","weight":10},{"bandwidth":1000000,"bidirectional":true,"from_interface":"i4","from_router":"Phoenix","latency":888,"to_interface":"i0","to_router":"Albuquerque","weight":10},{"bandwidth":1000000,"bidirectional":true,"from_interface":"i2","from_router":"Boise","latency":928,"to_interface":"i1","to_router":"Portland","weight":10},{"bandwidth":1000000,"bidirectional":true,"from_interface":"i3","from_router":"Boise","latency":770,"to_interface":"i0","to_router":"Spokane","weight":10},{"bandwidth":1000000,"bidirectional":true,"from_interface":"i4","from_router":"Boise","latency":1089,"to_interface":"i1","to_router":"Seattle","weight":10},{"bandwidth":1000000,"bidirectional":true,"from_interface":"i1","from_router":"Spokane","latency":617,"to_interface":"i2","to_router":"Seattle","weight":10},{"bandwidth":1000000,"bidirectional":true,"from_interface":"i3","from_router":"Seattle","latency":393,"to_interface":"i2","to_router":"Portland","weight":10},{"bandwidth":1000000,"bidirectional":true,"from_interface":"i1","from_router":"Colorado_Springs","latency":750,"to_interface":"i1","to_router":"Albuquerque","weight":10}],"name":"Tw","routers":[{"interfaces":[{"names":["i0","i1","i2"],"routing_table":{}}],"location":{"latitude":32.71533,"longitude":-117.15726},"name":"San_Diego"},{"interfaces":[{"names":["i0","i1","i2","i3"],"routing_table":{}}],"location":{"latitude":33.78779,"longitude":-117.85311},"name":"Orange_County"},{"interfaces":[{"names":["i0","i1"],"routing_table":{}}],"location":{"latitude":31.75872,"longitude":-106.48693},"name":"El_Paso"},{"interfaces":[{"names":["i0","i1"],"routing_table":{}}],"location":{"latitude":21.30694,"longitude":-157.85833},"name":"Honolulu"},{"interfaces":[{"names":["i0"],"routing_table":{}}],"location":{"latitude":35.28275,"longitude":-120.65962},"name":"San_Louis_Obispo"},{"interfaces":[{"names":["i0","i1","i2"],"routing_table":{}}],"location":{"latitude":37.77493,"longitude":-122.41942},"name":"San_Francisco"},{"interfaces":[{"names":["i0","i1","i2","i3","i4","i5"],"routing_table":{}}],"location":{"latitude":34.05223,"longitude":-118.24368},"name":"Los_Angeles"},{"interfaces":[{"names":["i0","i1"],"routing_table":{}}],"location":{"latitude":34.42083,"longitude":-119.69819},"name":"Santa_Barbara"},{"interfaces":[{"names":["i0"],"routing_table":{}}],"location":{"latitude":40.72816,"longitude":-74.07764},"name":"New_Jersey"},{"interfaces":[{"names":["i0","i1","i2"],"routing_table":{}}],"location":{"latitude":39.29038,"longitude":-76.61219},"name":"Baltimore"},{"interfaces":[{"names":["i0","i1","i2","i3","i4","i5","i6"],"routing_table":{}}],"location":{"latitude":37.80437,"longitude":-122.2708},"name":"Oakland"},{"interfaces":[{"names":["i0","i1"],"routing_table":{}}],"location":{"latitude":38.58157,"longitude":-121.4944},"name":"Sacramento"},{"interfaces":[{"names":["i0","i1","i2","i3"],"routing_table":{}}],"location":{"latitude":43.15478,"longitude":-77.61556},"name":"Rochester"},{"interfaces":[{"names":["i0"],"routing_table":{}}],"location":{"latitude":42.09869,"longitude":-75.91797},"name":"Binghamton"},{"interfaces":[{"names":["i0","i1"],"routing_table":{}}],"location":{"latitude":39.75895,"longitude":-84.19161},"name":"Dayton"},{"interfaces":[{"names":["i0","i1","i2","i3"],"routing_table":{}}],"location":{"latitude":39.96118,"longitude":-82.99879},"name":"Columbus"},{"interfaces":[{"names":["i0","i1"],"routing_table":{}}],"location":{"latitude":33.52066,"longitude":-86.80249},"name":"Birmingham"},{"interfaces":[{"names":["i0","i1","i2","i3","i4","i5"],"routing_table":{}}],"location":{"latitude":35.14953,"longitude":-90.04898},"name":"Memphis"},{"interfaces":[{"names":["i0","i1","i2"],"routing_table":{}}],"location":{"latitude":30.22409,"longitude":-92.01984},"name":"Lafayette"},{"interfaces":[{"names":["i0"],"routing_table":{}}],"location":{"latitude":30.45075,"longitude":-91.15455},"name":"Baton_Rouge"},{"interfaces":[{"names":["i0","i1","i2","i3"],"routing_table":{}}],"location":{"latitude":29.95465,"longitude":-90.07507},"name":"New_Orleans"},{"interfaces":[{"names":["i0"],"routing_table":{}}],"location":{"latitude":32.29876,"longitude":-90.18481},"name":"Jackson"},{"interfaces":[{"names":["i0","i1"],"routing_table":{}}],"location":{"latitude":30.69436,"longitude":-88.04305},"name":"Mobile"},{"interfaces":[{"names":["i0","i1"],"routing_table":{}}],"location":{"latitude":32.36681,"longitude":-86.29997},"name":"Montgomery"},{"interfaces":[{"names":["i0","i1"],"routing_table":{}}],"location":{"latitude":39.96118,"longitude":-82.99879},"name":"Columbus2"},{"interfaces":[{"names":["i0","i1","i2","i3","i4","i5","i6","i7","i8","i9","i10"],"routing_table":{}}],"location":{"latitude":33.749,"longitude":-84.38798},"name":"Atlanta"},{"interfaces":[{"names":["i0","i1","i2","i3"],"routing_table":{}}],"location":{"latitude":27.94752,"longitude":-82.45843},"name":"Tampa"},{"interfaces":[{"names":["i0","i1","i2","i3","i4","i5","i6"],"routing_table":{}}],"location":{"latitude":38.89511,"longitude":-77.03637},"name":"Washington_DC"},{"interfaces":[{"names":["i0","i1","i2"],"routing_table":{}}],"location":{"latitude":35.7721,"longitude":-78.63861},"name":"Raleigh"},{"interfaces":[{"names":["i0","i1"],"routing_table":{}}],"location":{"latitude":38.62727,"longitude":-90.19789},"name":"St_Louis"},{"interfaces":[{"names":["i0"],"routing_table":{}}],"location":{"latitude":32.52515,"longitude":-93.75018},"name":"Shreveport"},{"interfaces":[{"names":["i0","i1","i2"],"routing_table":{}}],"location":{"latitude":28.53834,"longitude":-81.37924},"name":"Orlando"},{"interfaces":[{"names":["i0","i1","i2","i3","i4"],"routing_table":{}}],"location":{"latitude":39.73915,"longitude":-104.9847},"name":"Denver"},{"interfaces":[{"names":["i0","i1"],"routing_table":{}}],"location":{"latitude":35.05266,"longitude":-78.87836},"name":"Fayatteville"},{"interfaces":[{"names":["i0","i1"],"routing_table":{}}],"location":{"latitude":42.65258,"longitude":-73.75623},"name":"Albany"},{"interfaces":[{"names":["i0","i1"],"routing_table":{}}],"location":{"latitude":37.98869,"longitude":-84.47772},"name":"Lexington"},{"interfaces":[{"names":["i0","i1","i2"],"routing_table":{}}],"location":{"latitude":39.162,"longitude":-84.45689},"name":"Cincinnati"},{"interfaces":[{"names":["i0","i1"],"routing_table":{}}],"location":{"latitude":34.00071,"longitude":-81.03481},"name":"Columnia"},{"interfaces":[{"names":["i0","i1"],"routing_table":{}}],"location":{"latitude":36.16589,"longitude":-86.78444},"name":"Nashville"},{"interfaces":[{"names":["i0","i1"],"routing_table":{}}],"location":{"latitude":34.85262,"longitude":-82.39401},"name":"Greenville"},{"interfaces":[{"names":["i0","i1","i2","i3","i4","i5","i6","i7"],"routing_table":{}}],"location":{"latitude":35.22709,"longitude":-80.84313},"name":"Charlotte"},{"interfaces":[{"names":["i0","i1"],"routing_table":{}}],"location":{"latitude":36.07264,"longitude":-79.79198},"name":"Greensboro"},{"interfaces":[{"names":["i0","i1"],"routing_table":{}}],"location":{"latitude":39.11417,"longitude":-94.62746},"name":"Kansas_City"},{"interfaces":[{"names":["i0","i1"],"routing_table":{}}],"location":{"latitude":34.74648,"longitude":-92.28959},"name":"Little_Rock"},{"interfaces":[{"names":["i0","i1","i2"],"routing_table":{}}],"location":{"latitude":44.97997,"longitude":-93.26384},"name":"Minneapolis"},{"interfaces":[{"names":["i0","i1"],"routing_table":{}}],"location":{"latitude":36.15398,"longitude":-95.99278},"name":"Tulsa"},{"interfaces":[{"names":["i0","i1","i2","i3","i4","i5","i6","i7","i8"],"routing_table":{}}],"location":{"latitude":41.85003,"longitude":-87.65005},"name":"Chicago"},{"interfaces":[{"names":["i0","i1"],"routing_table":{}}],"location":{"latitude":43.0389,"longitude":-87.90647},"name":"Milwauke"},{"interfaces":[{"names":["i0","i1","i2"],"routing_table":{}}],"location":{"latitude":38.25424,"longitude":-85.75941},"name":"Louisville"},{"interfaces":[{"names":["i0","i1","i2","i3","i4"],"routing_table":{}}],"location":{"latitude":30.21309,"longitude":-93.2044},"name":"Lake_Charles"},{"interfaces":[{"names":["i0","i1"],"routing_table":{}}],"location":{"latitude":30.33218,"longitude":-81.65565},"name":"Jacksonville"},{"interfaces":[{"names":["i0","i1","i2","i3"],"routing_table":{}}],"location":{"latitude":32.72541,"longitude":-97.32085},"name":"Fort_Worth"},{"interfaces":[{"names":["i0","i1","i2"],"routing_table":{}}],"location":{"latitude":36.17497,"longitude":-115.13722},"name":"Las_Vegas"},{"interfaces":[{"names":["i0","i1"],"routing_table":{}}],"location":{"latitude":35.37329,"longitude":-119.01871},"name":"Bakersfield"},{"interfaces":[{"names":["i0","i1"],"routing_table":{}}],"location":{"latitude":36.74773,"longitude":-119.77237},"name":"Fresno"},{"interfaces":[{"names":["i0","i1","i2","i3","i4","i5"],"routing_table":{}}],"location":{"latitude":29.76328,"longitude":-95.36327},"name":"Houston"},{"interfaces":[{"names":["i0","i1"],"routing_table":{}}],"location":{"latitude":29.42412,"longitude":-98.49363},"name":"San_Antonio"},{"interfaces":[{"names":["i0","i1","i2","i3"],"routing_table":{}}],"location":{"latitude":30.26715,"longitude":-97.74306},"name":"Austin"},{"interfaces":[{"names":["i0","i1","i2","i3","i4","i5","i6","i7","i8","i9","i10","i11"],"routing_table":{}}],"location":{"latitude":32.78306,"longitude":-96.80667},"name":"Dallas"},{"interfaces":[{"names":["i0"],"routing_table":{}}],"location":{"latitude":25.77427,"longitude":-80.19366},"name":"Miami"},{"interfaces":[{"names":["i0","i1","i2","i3","i4","i5"],"routing_table":{}}],"location":{"latitude":39.76838,"longitude":-86.15804},"name":"Indianapolis"},{"interfaces":[{"names":["i0","i1","i2"],"routing_table":{}}],"location":{"latitude":26.12231,"longitude":-80.14338},"name":"Fort_Lauderdale"},{"interfaces":[{"names":["i0","i1","i2","i3","i4"],"routing_table":{}}],"location":{"latitude":33.44838,"longitude":-112.07404},"name":"Phoenix"},{"interfaces":[{"names":["i0","i1"],"routing_table":{}}],"location":{"latitude":32.22174,"longitude":-110.92648},"name":"Tucson"},{"interfaces":[{"names":["i0","i1","i2","i3","i4"],"routing_table":{}}],"location":{"latitude":43.6135,"longitude":-116.20345},"name":"Boise"},{"interfaces":[{"names":["i0","i1"],"routing_table":{}}],"location":{"latitude":47.65878,"longitude":-117.42605},"name":"Spokane"},{"interfaces":[{"names":["i0","i1","i2","i3"],"routing_table":{}}],"location":{"latitude":47.60621,"longitude":-122.33207},"name":"Seattle"},{"interfaces":[{"names":["i0","i1","i2"],"routing_table":{}}],"location":{"latitude":45.52345,"longitude":-122.67621},"name":"Portland"},{"interfaces":[{"names":["i0","i1","i2","i3","i4"],"routing_table":{}}],"location":{"latitude":40.71427,"longitude":-74.00597},"name":"New_York"},{"interfaces":[{"names":["i0","i1"],"routing_table":{}}],"location":{"latitude":38.83388,"longitude":-104.82136},"name":"Colorado_Springs"},{"interfaces":[{"names":["i0","i1"],"routing_table":{}}],"location":{"latitude":35.08449,"longitude":-106.65114},"name":"Albuquerque"}]}}
