{"network":{"links":[{"bandwidth":1000000,"bidirectional":true,"from_interface":"i0","from_router":"Seattle","latency":4649,"to_interface":"i0","to_router":"Chicago","weight":10},{"bandwidth":1000000,"bidirectional":true,"from_interface":"i1","from_router":"Seattle","latency":324,"to_interface":"i0","to_router":"Vancouver","weight":10},{"bandwidth":1000000,"bidirectional":true,"from_interface":"i2","from_router":"Seattle","latency":4747,"to_interface":"i0","to_router":"Austin","weight":10},{"bandwidth":1000000,"bidirectional":true,"from_interface":"i0","from_router":"Tampa","latency":554,"to_interface":"i0","to_router":"Miami","weight":10},{"bandwidth":1000000,"bidirectional":true,"from_interface":"i1","from_router":"Tampa","latency":1122,"to_interface":"i0","to_router":"Atlanta","weight":10},{"bandwidth":1000000,"bidirectional":true,"from_interface":"i1","from_router":"Chicago","latency":2624,"to_interface":"i1","to_router":"Austin","weight":10},{"bandwidth":1000000,"bidirectional":true,"from_interface":"i2","from_router":"Chicago","latency":1578,"to_interface":"i1","to_router":"Atlanta","weight":10},{"bandwidth":1000000,"bidirectional":true,"from_interface":"i1","from_router":"Miami","latency":25030,"to_interface":"i0","to_router":"Sydney","weight":10},{"bandwidth":1000000,"bidirectional":true,"from_interface":"i2","from_router":"Miami","latency":2930,"to_interface":"i0","to_router":"New_York","weight":10},{"bandwidth":1000000,"bidirectional":true,"from_interface":"i3","from_router":"Miami","latency":1627,"to_interface":"i2","to_router":"Atlanta","weight":10},{"bandwidth":1000000,"bidirectional":true,"from_interface":"i1","from_router":"New_York","latency":26633,"to_interface":"i1","to_router":"Sydney","weight":10},{"bandwidth":1000000,"bidirectional":true,"from_interface":"i2","from_router":"New_York","latency":9281,"to_interface":"i0","to_router":"London","weight":10},{"bandwidth":1000000,"bidirectional":true,"from_interface":"i3","from_router":"New_York","latency":2004,"to_interface":"i3","to_router":"Atlanta","weight":10},{"bandwidth":1000000,"bidirectional":true,"from_interface":"i0","from_router":"Bucharest","latency":13214,"to_interface":"i0","to_router":"Seoul","weight":10},{"bandwidth":1000000,"bidirectional":true,"from_interface":"i1","from_router":"Bucharest","latency":2426,"to_interface":"i0","to_router":"Frankfurt","weight":10},{"bandwidth":1000000,"bidirectional":true,"from_interface":"i1","from_router":"Seoul","latency":13876,"to_interface":"i2","to_router":"Sydney","weight":10},{"bandwidth":1000000,"bidirectional":true,"from_interface":"i0","from_router":"Hannover","latency":552,"to_interface":"i0","to_router":"Amsterdam","weight":10},{"bandwidth":1000000,"bidirectional":true,"from_interface":"i1","from_router":"Hannover","latency":439,"to_interface":"i1","to_router":"Frankfurt","weight":10},{"bandwidth":1000000,"bidirectional":true,"from_interface":"i1","from_router":"Amsterdam","latency":226,"to_interface":"i0","to_router":"Antwerp","weight":10},{"bandwidth":1000000,"bidirectional":true,"from_interface":"i2","from_router":"Amsterdam","latency":599,"to_interface":"i1","to_router":"London","weight":10},{"bandwidth":1000000,"bidirectional":true,"from_interface":"i1","from_router":"Antwerp","latency":545,"to_interface":"i2","to_router":"Frankfurt","weight":10}],"name":"HostwayInternational","routers":[{"interfaces":[{"names":["i0","i1","i2"],"routing_table":{}}],"location":{"latitude":47.60621,"longitude":-122.33207},"name":"Seattle"},{"interfaces":[{"names":["i0","i1"],"routing_table":{}}],"location":{"latitude":27.94752,"longitude":-82.45843},"name":"Tampa"},{"interfaces":[{"names":["i0","i1","i2"],"routing_table":{}}],"location":{"latitude":41.85003,"longitude":-87.65005},"name":"Chicago"},{"interfaces":[{"names":["i0"],"routing_table":{}}],"location":{"latitude":49.24966,"longitude":-123.11934},"name":"Vancouver"},{"interfaces":[{"names":["i0","i1","i2","i3"],"routing_table":{}}],"location":{"latitude":25.77427,"longitude":-80.19366},"name":"Miami"},{"interfaces":[{"names":["i0","i1"],"routing_table":{}}],"location":{"latitude":30.26715,"longitude":-97.74306},"name":"Austin"},{"interfaces":[{"names":["i0","i1","i2","i3"],"routing_table":{}}],"location":{"latitude":40.71427,"longitude":-74.00597},"name":"New_York"},{"interfaces":[{"names":["i0","i1","i2","i3"],"routing_table":{}}],"location":{"latitude":33.749,"longitude":-84.38798},"name":"Atlanta"},{"interfaces":[{"names":["i0","i1"],"routing_table":{}}],"location":{"latitude":44.43225,"longitude":26.10626},"name":"Bucharest"},{"interfaces":[{"names":["i0","i1"],"routing_table":{}}],"location":{"latitude":37.56826,"longitude":126.97783},"name":"Seoul"},{"interfaces":[{"names":["i0","i1","i2"],"routing_table":{}}],"location":{"latitude":-33.86785,"longitude":151.20732},"name":"Sydney"},{"interfaces":[{"names":["i0","i1"],"routing_table":{}}],"location":{"latitude":52.37052,"longitude":9.73322},"name":"Hannover"},{"interfaces":[{"names":["i0","i1","i2"],"routing_table":{}}],"location":{"latitude":52.37403,"longitude":4.88969},"name":"Amsterdam"},{"interfaces":[{"names":["i0","i1"],"routing_table":{}}],"location":{"latitude":51.21667,"longitude":4.41667},"name":"Antwerp"},{"interfaces":[{"names":["i0","i1","i2"],"routing_table":{}}],"location":{"latitude":50.11667,"longitude":8.68333},"name":"Frankfurt"},{"interfaces":[{"names":["i0","i1"],"routing_table":{}}],"location":{"latitude":51.50853,"longitude":-0.12574},"name":"London"}]}}
