{"network":{"links":[{"bandwidth":45000,"bidirectional":true,"from_interface":"i0","from_router":"Chicago","latency":1158,"to_interface":"i0","to_router":"Omaha","weight":10},{"bandwidth":45000,"bidirectional":true,"from_interface":"i1","from_router":"Chicago","latency":643,"to_interface":"i0","to_router":"Detroit","weight":10},{"bandwidth":45000,"bidirectional":true,"from_interface":"i2","from_router":"Chicago","latency":701,"to_interface":"i0","to_router":"St_Louis","weight":10},{"bandwidth":45000,"bidirectional":true,"from_interface":"i1","from_router":"Omaha","latency":3786,"to_interface":"i0","to_router":"Hayward","weight":10},{"bandwidth":45000,"bidirectional":true,"from_interface":"i0","from_router":"Columbus","latency":443,"to_interface":"i1","to_router":"Detroit","weight":10},{"bandwidth":45000,"bidirectional":true,"from_interface":"i1","from_router":"Columbus","latency":438,"to_interface":"i0","to_router":"Pittsburgh","weight":10},{"bandwidth":45000,"bidirectional":true,"from_interface":"i2","from_router":"Columbus","latency":260,"to_interface":"i0","to_router":"Cincinnati","weight":10},{"bandwidth":45000,"bidirectional":true,"from_interface":"i0","from_router":"Atlanta","latency":611,"to_interface":"i0","to_router":"Charlotte","weight":10},{"bandwidth":45000,"bidirectional":true,"from_interface":"i1","from_router":"Atlanta","latency":769,"to_interface":"i0","to_router":"Jacksonville","weight":10},{"bandwidth":45000,"bidirectional":true,"from_interface":"i2","from_router":"Atlanta","latency":1882,"to_interface":"i0","to_router":"Houston","weight":10},{"bandwidth":45000,"bidirectional":true,"from_interface":"i1","from_router":"Jacksonville","latency":882,"to_interface":"i0","to_router":"Miami","weight":10},{"bandwidth":45000,"bidirectional":true,"from_interface":"i0","from_router":"Kansas_City","latency":1221,"to_interface":"i0","to_router":"Dallas","weight":10},{"bandwidth":45000,"bidirectional":true,"from_interface":"i1","from_router":"Kansas_City","latency":649,"to_interface":"i1","to_router":"St_Louis","weight":10},{"bandwidth":45000,"bidirectional":true,"from_interface":"i0","from_router":"Orlando","latency":212,"to_interface":"i0","to_router":"Tampa","weight":10},{"bandwidth":45000,"bidirectional":true,"from_interface":"i1","from_router":"Orlando","latency":1650,"to_interface":"i0","to_router":"Nashville","weight":10},{"bandwidth":45000,"bidirectional":true,"from_interface":"i1","from_router":"Tampa","latency":554,"to_interface":"i1","to_router":"Miami","weight":10},{"bandwidth":45000,"bidirectional":true,"from_interface":"i0","from_router":"Baltimore","latency":245,"to_interface":"i0","to_router":"Philadelphia","weight":10},{"bandwidth":45000,"bidirectional":true,"from_interface":"i1","from_router":"Baltimore","latency":245,"to_interface":"i1","to_router":"Philadelphia","weight":10},{"bandwidth":45000,"bidirectional":true,"from_interface":"i2","from_router":"Baltimore","latency":100,"to_interface":"i0","to_router":"Washington,_DC","weight":10},{"bandwidth":45000,"bidirectional":true,"from_interface":"i3","from_router":"Baltimore","latency":100,"to_interface":"i1","to_router":"Washington,_DC","weight":10},{"bandwidth":45000,"bidirectional":true,"from_interface":"i2","from_router":"Philadelphia","latency":82,"to_interface":"i0","to_router":"Trenton","weight":10},{"bandwidth":45000,"bidirectional":true,"from_interface":"i1","from_router":"Trenton","latency":130,"to_interface":"i0","to_router":"Newark","weight":10},{"bandwidth":45000,"bidirectional":true,"from_interface":"i1","from_router":"Pittsburgh","latency":514,"to_interface":"i2","to_router":"Washington,_DC","weight":10},{"bandwidth":45000,"bidirectional":true,"from_interface":"i2","from_router":"Pittsburgh","latency":1295,"to_interface":"i0","to_router":"Boston","weight":10},{"bandwidth":45000,"bidirectional":true,"from_interface":"i0","from_router":"Richmond","latency":260,"to_interface":"i3","to_router":"Washington,_DC","weight":10},{"bandwidth":45000,"bidirectional":true,"from_interface":"i1","from_router":"Richmond","latency":668,"to_interface":"i1","to_router":"Charlotte","weight":10},{"bandwidth":45000,"bidirectional":true,"from_interface":"i1","from_router":"Newark","latency":28,"to_interface":"i0","to_router":"New_York","weight":10},{"bandwidth":45000,"bidirectional":true,"from_interface":"i2","from_router":"Newark","latency":28,"to_interface":"i1","to_router":"New_York","weight":10},{"bandwidth":45000,"bidirectional":true,"from_interface":"i2","from_router":"New_York","latency":514,"to_interface":"i1","to_router":"Boston","weight":10},{"bandwidth":45000,"bidirectional":true,"from_interface":"i0","from_router":"Louisville","latency":257,"to_interface":"i1","to_router":"Cincinnati","weight":10},{"bandwidth":45000,"bidirectional":true,"from_interface":"i1","from_router":"Louisville","latency":420,"to_interface":"i1","to_router":"Nashville","weight":10},{"bandwidth":45000,"bidirectional":true,"from_interface":"i1","from_router":"Hayward","latency":888,"to_interface":"i0","to_router":"Los_Angeles","weight":10},{"bandwidth":45000,"bidirectional":true,"from_interface":"i1","from_router":"Los_Angeles","latency":3320,"to_interface":"i1","to_router":"Dallas","weight":10},{"bandwidth":45000,"bidirectional":true,"from_interface":"i2","from_router":"Dallas","latency":85,"to_interface":"i0","to_router":"Fort_Worth","weight":10},{"bandwidth":45000,"bidirectional":true,"from_interface":"i3","from_router":"Dallas","latency":609,"to_interface":"i1","to_router":"Houston","weight":10},{"bandwidth":45000,"bidirectional":true,"from_interface":"i1","from_router":"Fort_Worth","latency":465,"to_interface":"i0","to_router":"Austin","weight":10},{"bandwidth":45000,"bidirectional":true,"from_interface":"i1","from_router":"Austin","latency":4024,"to_interface":"i0","to_router":"San_Francisco","weight":10},{"bandwidth":45000,"bidirectional":true,"from_interface":"i1","from_router":"San_Francisco","latency":4407,"to_interface":"i2","to_router":"Houston","weight":10}],"name":"Digex","routers":[{"interfaces":[{"names":["i0","i1","i2"],"routing_table":{}}],"location":{"latitude":41.85003,"longitude":-87.65005},"name":"Chicago"},{"interfaces":[{"names":["i0","i1"],"routing_table":{}}],"location":{"latitude":41.25861,"longitude":-95.93779},"name":"Omaha"},{"interfaces":[{"names":["i0","i1","i2"],"routing_table":{}}],"location":{"latitude":39.96118,"longitude":-82.99879},"name":"Columbus"},{"interfaces":[{"names":["i0","i1"],"routing_table":{}}],"location":{"latitude":42.33143,"longitude":-83.04575},"name":"Detroit"},{"interfaces":[{"names":["i0","i1","i2"],"routing_table":{}}],"location":{"latitude":33.749,"longitude":-84.38798},"name":"Atlanta"},{"interfaces":[{"names":["i0","i1"],"routing_table":{}}],"location":{"latitude":30.33218,"longitude":-81.65565},"name":"Jacksonville"},{"interfaces":[{"names":["i0","i1"],"routing_table":{}}],"location":{"latitude":39.11417,"longitude":-94.62746},"name":"Kansas_City"},{"interfaces":[{"names":["i0","i1"],"routing_table":{}}],"location":{"latitude":38.62727,"longitude":-90.19789},"name":"St_Louis"},{"interfaces":[{"names":["i0","i1"],"routing_table":{}}],"location":{"latitude":28.53834,"longitude":-81.37924},"name":"Orlando"},{"interfaces":[{"names":["i0","i1"],"routing_table":{}}],"location":{"latitude":27.94752,"longitude":-82.45843},"name":"Tampa"},{"interfaces":[{"names":["i0","i1","i2","i3"],"routing_table":{}}],"location":{"latitude":39.29038,"longitude":-76.61219},"name":"Baltimore"},{"interfaces":[{"names":["i0","i1","i2"],"routing_table":{}}],"location":{"latitude":39.95234,"longitude":-75.16379},"name":"Philadelphia"},{"interfaces":[{"names":["i0","i1"],"routing_table":{}}],"location":{"latitude":40.21705,"longitude":-74.74294},"name":"Trenton"},{"interfaces":[{"names":["i0","i1","i2"],"routing_table":{}}],"location":{"latitude":40.44062,"longitude":-79.99589},"name":"Pittsburgh"},{"interfaces":[{"names":["i0","i1"],"routing_table":{}}],"location":{"latitude":37.55376,"longitude":-77.46026},"name":"Richmond"},{"interfaces":[{"names":["i0","i1"],"routing_table":{}}],"location":{"latitude":35.22709,"longitude":-80.84313},"name":"Charlotte"},{"interfaces":[{"names":["i0","i1"],"routing_table":{}}],"location":{"latitude":25.77427,"longitude":-80.19366},"name":"Miami"},{"interfaces":[{"names":["i0","i1","i2"],"routing_table":{}}],"location":{"latitude":40.73566,"longitude":-74.17237},"name":"Newark"},{"interfaces":[{"names":["i0","i1","i2"],"routing_table":{}}],"location":{"latitude":40.71427,"longitude":-74.00597},"name":"New_York"},{"interfaces":[{"names":["i0","i1","i2","i3"],"routing_table":{}}],"location":{"latitude":38.89511,"longitude":-77.03637},"name":"Washington,_DC"},{"interfaces":[{"names":["i0","i1"],"routing_table":{}}],"location":{"latitude":42.35843,"longitude":-71.05977},"name":"Boston"},{"interfaces":[{"names":["i0","i1"],"routing_table":{}}],"location":{"latitude":38.25424,"longitude":-85.75941},"name":"Louisville"},{"interfaces":[{"names":["i0","i1"],"routing_table":{}}],"location":{"latitude":39.162,"longitude":-84.45689},"name":"Cincinnati"},{"interfaces":[{"names":["i0","i1"],"routing_table":{}}],"location":{"latitude":37.66882,"longitude":-122.0808},"name":"Hayward"},{"interfaces":[{"names":["i0","i1"],"routing_table":{}}],"location":{"latitude":34.05223,"longitude":-118.24368},"name":"Los_Angeles"},{"interfaces":[{"names":["i0","i1","i2","i3"],"routing_table":{}}],"location":{"latitude":32.78306,"longitude":-96.80667},"name":"Dallas"},{"interfaces":[{"names":["i0","i1"],"routing_table":{}}],"location":{"latitude":32.72541,"longitude":-97.32085},"name":"Fort_Worth"},{"interfaces":[{"names":["i0","i1"],"routing_table":{}}],"location":{"latitude":30.26715,"longitude":-97.74306},"name":"Austin"},{"interfaces":[{"names":["i0","i1"],"routing_table":{}}],"location":{"latitude":37.77493,"longitude":-122.41942},"name":"San_Francisco"},{"interfaces":[{"names":["i0","i1","i2"],"routing_table":{}}],"location":{"latitude":29.76328,"longitude":-95.36327},"name":"Houston"},{"interfaces":[{"names":["i0","i1"],"routing_table":{}}],"location":{"latitude":36.16589,"longitude":-86.78444},"name":"Nashville"}]}}
